"","start_date","season","state","location","date_report","Phen_state","month","days","lat","lon","Phen_state_int","start_season","days_sep15","week","region"
"1",2004-09-07,"2005","PR","Bandeirantes",2005-01-03,"R6","Jan",118,-23.11,-50.368,11,2004-09-15,110,17,"South"
"2",2004-09-07,"2005","PR","Cafelândia",2004-12-20,"R5","Dec",104,-24.618,-53.32,10,2004-09-15,96,14,"South"
"3",2004-09-07,"2005","PR","Cambará",2005-01-07,"R5","Jan",122,-23.046,-50.074,10,2004-09-15,114,17,"South"
"4",2004-09-07,"2005","PR","Capanema",2004-12-17,"R5","Dec",101,-25.672,-53.809,10,2004-09-15,93,14,"South"
"5",2004-09-07,"2005","PR","Formosa do Oeste",2004-12-13,"R5","Dec",97,-24.293,-53.313,10,2004-09-15,89,13,"South"
"6",2004-09-07,"2005","PR","Iporã",2005-01-07,"R5","Jan",122,-24.003,-53.704,10,2004-09-15,114,17,"South"
"7",2004-09-07,"2005","PR","Laranjeiras do Sul",2005-01-14,"R5","Jan",129,-25.408,-52.416,10,2004-09-15,121,18,"South"
"8",2004-09-07,"2005","PR","Matelândia",2005-01-07,"R5","Jan",122,-25.241,-53.996,10,2004-09-15,114,17,"South"
"9",2004-09-07,"2005","PR","Nova Santa Bárbara",2005-01-03,"R4","Jan",118,-23.597,-50.724,9,2004-09-15,110,17,"South"
"10",2004-09-07,"2005","PR","Pérola",2004-12-15,"R5","Dec",99,-23.805,-53.684,10,2004-09-15,91,13,"South"
"11",2004-09-07,"2005","PR","Sertaneja",2005-01-03,"R5","Jan",118,-23.037,-50.838,10,2004-09-15,110,17,"South"
"12",2004-09-07,"2005","PR","Três Barras do Paraná",2004-11-18,"R3","Nov",72,-25.419,-53.181,8,2004-09-15,64,10,"South"
"13",2004-09-07,"2005","RS","Joia",2005-02-01,"R5","Feb",147,-28.647,-54.122,10,2004-09-15,139,21,"South"
"14",2004-09-07,"2005","RS","Santo Augusto",2005-01-17,"R5","Jan",132,-27.851,-53.777,10,2004-09-15,124,19,"South"
"15",2004-09-07,"2005","SC","Faxinal dos Guedes",2005-02-17,"R5","Feb",163,-26.853,-52.26,10,2004-09-15,155,23,"South"
"16",2004-10-07,"2005","PR","Abatiá",2005-02-01,"R5","Feb",117,-23.304,-50.313,10,2004-09-15,139,21,"South"
"17",2004-10-07,"2005","PR","Arapuã",2005-01-14,"R5","Jan",99,-24.316,-51.787,10,2004-09-15,121,18,"South"
"18",2004-10-07,"2005","PR","Balsa Nova",2004-12-29,"Vn","Dec",83,-25.584,-49.636,5,2004-09-15,105,15,"South"
"19",2004-10-07,"2005","PR","Barbosa Ferraz",2005-01-26,"R4","Jan",111,-24.03,-52.012,9,2004-09-15,133,20,"South"
"20",2004-10-07,"2005","PR","Borrazópolis",2005-01-04,"R1","Jan",89,-23.941,-51.588,6,2004-09-15,111,17,"South"
"21",2004-10-07,"2005","PR","Cambira",2005-01-11,"R4","Jan",96,-23.583,-51.578,9,2004-09-15,118,18,"South"
"22",2004-10-07,"2005","PR","Campo do Tenente",2005-01-14,"R2","Jan",99,-25.978,-49.683,7,2004-09-15,121,18,"South"
"23",2004-10-07,"2005","PR","Colorado",2005-02-21,"R5","Feb",137,-22.838,-51.973,10,2004-09-15,159,24,"South"
"24",2004-10-07,"2005","PR","Congonhinhas",2005-01-06,"R4","Jan",91,-23.551,-50.554,9,2004-09-15,113,17,"South"
"25",2004-10-07,"2005","PR","Cornélio Procópio",2004-12-30,"R2","Dec",84,-23.181,-50.647,7,2004-09-15,106,16,"South"
"26",2004-10-07,"2005","PR","Coronel Domingos Soares",2005-01-17,"R1","Jan",102,-26.228,-52.032,6,2004-09-15,124,19,"South"
"27",2004-10-07,"2005","PR","Entre Rios do Oeste",2005-01-06,"R3","Jan",91,-24.704,-54.234,8,2004-09-15,113,17,"South"
"28",2004-10-07,"2005","PR","Ibaiti",2004-12-28,"R5","Dec",82,-23.849,-50.188,10,2004-09-15,104,15,"South"
"29",2004-10-07,"2005","PR","Irati",2005-02-22,"R5","Feb",138,-25.467,-50.651,10,2004-09-15,160,24,"South"
"30",2004-10-07,"2005","PR","Jaguariaíva",2004-12-14,"R1","Dec",68,-24.251,-49.706,6,2004-09-15,90,13,"South"
"31",2004-10-07,"2005","PR","Jandaia do Sul",2005-01-07,"R5","Jan",92,-23.603,-51.643,10,2004-09-15,114,17,"South"
"32",2004-10-07,"2005","PR","Jesuítas",2005-01-24,"R5","Jan",109,-24.385,-53.388,10,2004-09-15,131,20,"South"
"33",2004-10-07,"2005","PR","Kaloré",2005-01-12,"R5","Jan",97,-23.817,-51.668,10,2004-09-15,119,18,"South"
"34",2004-10-07,"2005","PR","Lunardelli",2005-01-26,"R4","Jan",111,-24.079,-51.738,9,2004-09-15,133,20,"South"
"35",2004-10-07,"2005","PR","Mandaguari",2005-01-07,"R3","Jan",92,-23.548,-51.671,8,2004-09-15,114,17,"South"
"36",2004-10-07,"2005","PR","Marechal Cândido Rondon",2005-01-06,"R5","Jan",91,-24.556,-54.057,10,2004-09-15,113,17,"South"
"37",2004-10-07,"2005","PR","Marumbi",2005-01-06,"R4","Jan",91,-23.706,-51.639,9,2004-09-15,113,17,"South"
"38",2004-10-07,"2005","PR","Mercedes",2005-01-18,"R5","Jan",103,-24.454,-54.162,10,2004-09-15,125,19,"South"
"39",2004-10-07,"2005","PR","Nova Santa Rosa",2005-01-20,"R5","Jan",105,-24.466,-53.953,10,2004-09-15,127,19,"South"
"40",2004-10-07,"2005","PR","Ortigueira",2004-12-27,"R4","Dec",81,-24.208,-50.949,9,2004-09-15,103,15,"South"
"41",2004-10-07,"2005","PR","Pato Bragado",2005-01-12,"R5","Jan",97,-24.626,-54.225,10,2004-09-15,119,18,"South"
"42",2004-10-07,"2005","PR","Porto Amazonas",2005-02-01,"R4","Feb",117,-25.545,-49.89,9,2004-09-15,139,21,"South"
"43",2004-10-07,"2005","PR","Quatro Pontes",2005-01-11,"R3","Jan",96,-24.575,-53.977,8,2004-09-15,118,18,"South"
"44",2004-10-07,"2005","PR","Ribeirão do Pinhal",2005-02-01,"R5","Feb",117,-23.408,-50.357,10,2004-09-15,139,21,"South"
"45",2004-10-07,"2005","PR","Sabáudia",2005-01-27,"R3","Jan",112,-23.318,-51.553,8,2004-09-15,134,20,"South"
"46",2004-10-07,"2005","PR","Santa Cecília do Pavão",2005-01-20,"R2","Jan",105,-23.517,-50.784,7,2004-09-15,127,19,"South"
"47",2004-10-07,"2005","PR","Santa Mariana",2005-01-17,"R5","Jan",102,-23.151,-50.519,10,2004-09-15,124,19,"South"
"48",2004-10-07,"2005","PR","Santa Terezinha de Itaipu",2005-01-20,"R5","Jan",105,-25.447,-54.401,10,2004-09-15,127,19,"South"
"49",2004-10-07,"2005","PR","Santo Antônio da Platina",2005-01-13,"R5","Jan",98,-23.295,-50.077,10,2004-09-15,120,18,"South"
"50",2004-10-07,"2005","PR","Teixeira Soares",2005-01-04,"Vn","Jan",89,-25.368,-50.461,5,2004-09-15,111,17,"South"
"51",2004-10-07,"2005","PR","Toledo",2005-01-22,"R5","Jan",107,-24.714,-53.743,10,2004-09-15,129,20,"South"
"52",2004-10-07,"2005","RS","Almirante Tamandaré do Sul",2005-02-04,"R3","Feb",120,-28.113,-52.909,8,2004-09-15,142,21,"South"
"53",2004-10-07,"2005","RS","Capão Bonito do Sul",2005-02-23,"R5","Feb",139,-28.128,-51.395,10,2004-09-15,161,24,"South"
"54",2004-10-07,"2005","RS","Carazinho",2005-02-14,"R5","Feb",130,-28.284,-52.786,10,2004-09-15,152,23,"South"
"55",2004-10-07,"2005","RS","Chapada",2005-02-21,"R3","Feb",137,-28.055,-53.068,8,2004-09-15,159,24,"South"
"56",2004-10-07,"2005","RS","Coxilha",2005-02-15,"R3","Feb",131,-28.127,-52.296,8,2004-09-15,153,23,"South"
"57",2004-10-07,"2005","RS","Derrubadas",2005-01-19,"R2","Jan",104,-27.265,-53.861,7,2004-09-15,126,19,"South"
"58",2004-10-07,"2005","RS","Dois Irmãos das Missões",2005-01-20,"R5","Jan",105,-27.659,-53.531,10,2004-09-15,127,19,"South"
"59",2004-10-07,"2005","RS","Fortaleza dos Valos",2005-01-25,"R4","Jan",110,-28.797,-53.223,9,2004-09-15,132,20,"South"
"60",2004-10-07,"2005","RS","Jaboticaba",2005-02-04,"R3","Feb",120,-27.631,-53.277,8,2004-09-15,142,21,"South"
"61",2004-10-07,"2005","RS","Lagoa Vermelha",2005-02-25,"R5","Feb",141,-28.209,-51.526,10,2004-09-15,163,24,"South"
"62",2004-10-07,"2005","RS","Palmeira das Missões",2005-02-04,"R5","Feb",120,-27.899,-53.314,10,2004-09-15,142,21,"South"
"63",2004-10-07,"2005","RS","Pontão",2005-01-27,"R4","Jan",112,-28.059,-52.677,9,2004-09-15,134,20,"South"
"64",2004-10-07,"2005","RS","Santiago",2005-02-11,"R4","Feb",127,-29.192,-54.867,9,2004-09-15,149,22,"South"
"65",2004-10-07,"2005","RS","São Luiz Gonzaga",2005-02-24,"R3","Feb",140,-28.408,-54.961,8,2004-09-15,162,24,"South"
"66",2004-10-07,"2005","RS","Tenente Portela",2004-12-23,"R2","Dec",77,-27.371,-53.758,7,2004-09-15,99,15,"South"
"67",2004-10-07,"2005","SC","Rio Negrinho",2005-01-17,"R4","Jan",102,-26.254,-49.518,9,2004-09-15,124,19,"South"
"68",2004-11-07,"2005","PR","Andirá",2005-01-14,"R5","Jan",68,-23.051,-50.229,10,2004-09-15,121,18,"South"
"69",2004-11-07,"2005","PR","Apucarana",2005-01-24,"R5","Jan",78,-23.551,-51.461,10,2004-09-15,131,20,"South"
"70",2004-11-07,"2005","PR","Arapoti",2005-01-14,"R1","Jan",68,-24.158,-49.827,6,2004-09-15,121,18,"South"
"71",2004-11-07,"2005","PR","Araruna",2005-01-14,"R1","Jan",68,-23.932,-52.496,6,2004-09-15,121,18,"South"
"72",2004-11-07,"2005","PR","Barra do Jacaré",2005-01-14,"R5","Jan",68,-23.115,-50.181,10,2004-09-15,121,18,"South"
"73",2004-11-07,"2005","PR","Boa Esperança",2005-01-13,"R3","Jan",67,-24.242,-52.789,8,2004-09-15,120,18,"South"
"74",2004-11-07,"2005","PR","Boa Ventura de São Roque",2005-02-03,"R3","Feb",88,-24.869,-51.628,8,2004-09-15,141,21,"South"
"75",2004-11-07,"2005","PR","Bom Sucesso",2005-02-01,"R5","Feb",86,-23.71,-51.764,10,2004-09-15,139,21,"South"
"76",2004-11-07,"2005","PR","Brasilândia do Sul",2005-01-11,"R5","Jan",65,-24.197,-53.525,10,2004-09-15,118,18,"South"
"77",2004-11-07,"2005","PR","Campina da Lagoa",2005-01-31,"R5","Jan",85,-24.592,-52.799,10,2004-09-15,138,21,"South"
"78",2004-11-07,"2005","PR","Cândido de Abreu",2005-01-01,"R3","Jan",55,-24.567,-51.333,8,2004-09-15,108,17,"South"
"79",2004-11-07,"2005","PR","Candói",2005-01-12,"R2","Jan",66,-25.663,-52.126,7,2004-09-15,119,18,"South"
"80",2004-11-07,"2005","PR","Cantagalo",2005-01-12,"R5","Jan",66,-25.374,-52.126,10,2004-09-15,119,18,"South"
"81",2004-11-07,"2005","PR","Carambeí",2005-01-28,"R3","Jan",82,-24.918,-50.097,8,2004-09-15,135,20,"South"
"82",2004-11-07,"2005","PR","Castro",2005-01-07,"R1","Jan",61,-24.791,-50.012,6,2004-09-15,114,17,"South"
"83",2004-11-07,"2005","PR","Cianorte",2005-01-14,"R2","Jan",68,-23.663,-52.605,7,2004-09-15,121,18,"South"
"84",2004-11-07,"2005","PR","Coronel Vivida",2004-12-27,"Vn","Dec",50,-25.98,-52.568,5,2004-09-15,103,15,"South"
"85",2004-11-07,"2005","PR","Corumbataí do Sul",2005-01-26,"R3","Jan",80,-24.101,-52.12,8,2004-09-15,133,20,"South"
"86",2004-11-07,"2005","PR","Dois Vizinhos",2004-12-13,"R4","Dec",36,-25.734,-53.057,9,2004-09-15,89,13,"South"
"87",2004-11-07,"2005","PR","Douradina",2005-01-17,"R2","Jan",71,-23.381,-53.292,7,2004-09-15,124,19,"South"
"88",2004-11-07,"2005","PR","Farol",2005-01-13,"R2","Jan",67,-24.1,-52.623,7,2004-09-15,120,18,"South"
"89",2004-11-07,"2005","PR","Fênix",2005-01-19,"R4","Jan",73,-23.916,-51.979,9,2004-09-15,126,19,"South"
"90",2004-11-07,"2005","PR","Fernandes Pinheiro",2005-02-09,"R5","Feb",94,-25.413,-50.548,10,2004-09-15,147,22,"South"
"91",2004-11-07,"2005","PR","Godoy Moreira",2005-02-03,"R5","Feb",88,-24.177,-51.924,10,2004-09-15,141,21,"South"
"92",2004-11-07,"2005","PR","Honório Serpa",2005-01-17,"R2","Jan",71,-26.141,-52.387,7,2004-09-15,124,19,"South"
"93",2004-11-07,"2005","PR","Imbituva",2005-02-01,"R3","Feb",86,-25.23,-50.604,8,2004-09-15,139,21,"South"
"94",2004-11-07,"2005","PR","Ipiranga",2005-01-26,"R3","Jan",80,-25.024,-50.584,8,2004-09-15,133,20,"South"
"95",2004-11-07,"2005","PR","Iretama",2005-01-24,"R5","Jan",78,-24.424,-52.106,10,2004-09-15,131,20,"South"
"96",2004-11-07,"2005","PR","Itambaracá",2005-01-14,"R5","Jan",68,-23.018,-50.406,10,2004-09-15,121,18,"South"
"97",2004-11-07,"2005","PR","Itapejara do Oeste",2004-12-20,"Vn","Dec",43,-25.965,-52.816,5,2004-09-15,96,14,"South"
"98",2004-11-07,"2005","PR","Ivaí",2005-01-26,"R5","Jan",80,-25.011,-50.859,10,2004-09-15,133,20,"South"
"99",2004-11-07,"2005","PR","Ivaiporã",2005-02-04,"R5","Feb",89,-24.248,-51.685,10,2004-09-15,142,21,"South"
"100",2004-11-07,"2005","PR","Jaboti",2005-01-06,"R2","Jan",60,-23.743,-50.076,7,2004-09-15,113,17,"South"
"101",2004-11-07,"2005","PR","Jardim Alegre",2005-01-20,"R5","Jan",74,-24.179,-51.692,10,2004-09-15,127,19,"South"
"102",2004-11-07,"2005","PR","Juranda",2005-01-12,"R2","Jan",66,-24.42,-52.843,7,2004-09-15,119,18,"South"
"103",2004-11-07,"2005","PR","Jussara",2005-01-17,"R2","Jan",71,-23.621,-52.469,7,2004-09-15,124,19,"South"
"104",2004-11-07,"2005","PR","Lapa",2005-01-05,"R3","Jan",59,-25.77,-49.716,8,2004-09-15,112,17,"South"
"105",2004-11-07,"2005","PR","Leópolis",2005-01-07,"R3","Jan",61,-23.08,-50.751,8,2004-09-15,114,17,"South"
"106",2004-11-07,"2005","PR","Londrina",2005-01-14,"R3","Jan",68,-23.31,-51.163,8,2004-09-15,121,18,"South"
"107",2004-11-07,"2005","PR","Luiziana",2005-01-12,"R3","Jan",66,-24.286,-52.276,8,2004-09-15,119,18,"South"
"108",2004-11-07,"2005","PR","Mallet",2005-01-21,"R1","Jan",75,-25.878,-50.821,6,2004-09-15,128,19,"South"
"109",2004-11-07,"2005","PR","Mamborê",2005-01-24,"R5","Jan",78,-24.319,-52.53,10,2004-09-15,131,20,"South"
"110",2004-11-07,"2005","PR","Mangueirinha",2005-01-17,"R1","Jan",71,-25.941,-52.176,6,2004-09-15,124,19,"South"
"111",2004-11-07,"2005","PR","Manoel Ribas",2005-02-14,"R5","Feb",99,-24.516,-51.668,10,2004-09-15,152,23,"South"
"112",2004-11-07,"2005","PR","Marmeleiro",2004-12-27,"R5","Dec",50,-26.149,-53.026,10,2004-09-15,103,15,"South"
"113",2004-11-07,"2005","PR","Mato Rico",2005-01-20,"R5","Jan",74,-24.705,-52.146,10,2004-09-15,127,19,"South"
"114",2004-11-07,"2005","PR","Mauá da Serra",2005-02-02,"R3","Feb",87,-23.901,-51.229,8,2004-09-15,140,21,"South"
"115",2004-11-07,"2005","PR","Moreira Sales",2005-01-17,"R2","Jan",71,-24.062,-53.007,7,2004-09-15,124,19,"South"
"116",2004-11-07,"2005","PR","Nova Aurora",2005-01-17,"R5","Jan",71,-24.529,-53.256,10,2004-09-15,124,19,"South"
"117",2004-11-07,"2005","PR","Nova Cantu",2005-01-20,"R2","Jan",74,-24.673,-52.569,7,2004-09-15,127,19,"South"
"118",2004-11-07,"2005","PR","Nova Tebas",2005-01-13,"R2","Jan",67,-24.438,-51.945,7,2004-09-15,120,18,"South"
"119",2004-11-07,"2005","PR","Ouro Verde do Oeste",2005-01-21,"R5","Jan",75,-24.805,-53.903,10,2004-09-15,128,19,"South"
"120",2004-11-07,"2005","PR","Palmas",2005-01-18,"R2","Jan",72,-26.484,-51.991,7,2004-09-15,125,19,"South"
"121",2004-11-07,"2005","PR","Palmeira",2005-01-21,"R3","Jan",75,-25.429,-50.006,8,2004-09-15,128,19,"South"
"122",2004-11-07,"2005","PR","Paulo Frontin",2005-02-09,"R2","Feb",94,-26.04,-50.836,7,2004-09-15,147,22,"South"
"123",2004-11-07,"2005","PR","Peabiru",2005-01-10,"R2","Jan",64,-23.913,-52.343,7,2004-09-15,117,18,"South"
"124",2004-11-07,"2005","PR","Pinhalão",2005-01-14,"R3","Jan",68,-23.793,-50.056,8,2004-09-15,121,18,"South"
"125",2004-11-07,"2005","PR","Pinhão",2005-01-17,"R5","Jan",71,-25.696,-51.66,10,2004-09-15,124,19,"South"
"126",2004-11-07,"2005","PR","Piraí do Sul",2005-01-24,"R1","Jan",78,-24.526,-49.949,6,2004-09-15,131,20,"South"
"127",2004-11-07,"2005","PR","Pitanga",2005-01-14,"R2","Jan",68,-24.757,-51.761,7,2004-09-15,121,18,"South"
"128",2004-11-07,"2005","PR","Ponta Grossa",2005-01-19,"R3","Jan",73,-25.095,-50.162,8,2004-09-15,126,19,"South"
"129",2004-11-07,"2005","PR","Porto Barreiro",2004-12-28,"R5","Dec",51,-25.547,-52.408,10,2004-09-15,104,15,"South"
"130",2004-11-07,"2005","PR","Quinta do Sol",2005-01-17,"R3","Jan",71,-23.852,-52.13,8,2004-09-15,124,19,"South"
"131",2004-11-07,"2005","PR","Reserva do Iguaçu",2005-01-18,"R3","Jan",72,-25.839,-52.028,8,2004-09-15,125,19,"South"
"132",2004-11-07,"2005","PR","Rio Bom",2005-02-02,"R5","Feb",87,-23.762,-51.411,10,2004-09-15,140,21,"South"
"133",2004-11-07,"2005","PR","Rio Bonito do Iguaçu",2005-01-14,"R1","Jan",68,-25.491,-52.526,6,2004-09-15,121,18,"South"
"134",2004-11-07,"2005","PR","Rolândia",2005-01-27,"R3","Jan",81,-23.31,-51.369,8,2004-09-15,134,20,"South"
"135",2004-11-07,"2005","PR","Roncador",2005-01-20,"R1","Jan",74,-24.603,-52.275,6,2004-09-15,127,19,"South"
"136",2004-11-07,"2005","PR","Santana do Itararé",2005-01-05,"R5","Jan",59,-23.755,-49.629,10,2004-09-15,112,17,"South"
"137",2004-11-07,"2005","PR","São João do Ivaí",2005-02-03,"R5","Feb",88,-23.98,-51.818,10,2004-09-15,141,21,"South"
"138",2004-11-07,"2005","PR","São Pedro do Iguaçu",2005-01-21,"R3","Jan",75,-24.936,-53.855,8,2004-09-15,128,19,"South"
"139",2004-11-07,"2005","PR","Sertanópolis",2004-12-23,"R3","Dec",46,-23.059,-51.036,8,2004-09-15,99,15,"South"
"140",2004-11-07,"2005","PR","Sulina",2005-01-24,"R5","Jan",78,-25.702,-52.722,10,2004-09-15,131,20,"South"
"141",2004-11-07,"2005","PR","Tapejara",2005-01-21,"R1","Jan",75,-23.733,-52.873,6,2004-09-15,128,19,"South"
"142",2004-11-07,"2005","PR","Terra Boa",2005-01-21,"R3","Jan",75,-23.768,-52.444,8,2004-09-15,128,19,"South"
"143",2004-11-07,"2005","PR","Turvo",2005-02-04,"R1","Feb",89,-25.043,-51.53,6,2004-09-15,142,21,"South"
"144",2004-11-07,"2005","PR","União da Vitória",2005-02-14,"R4","Feb",99,-26.23,-51.086,9,2004-09-15,152,23,"South"
"145",2004-11-07,"2005","PR","Uraí",2004-12-28,"R5","Dec",51,-23.198,-50.796,10,2004-09-15,104,15,"South"
"146",2004-11-07,"2005","PR","Ventania",2005-01-10,"R3","Jan",64,-24.246,-50.243,8,2004-09-15,117,18,"South"
"147",2004-11-07,"2005","PR","Wenceslau Braz",2005-01-14,"R2","Jan",68,-23.874,-49.803,7,2004-09-15,121,18,"South"
"148",2004-11-07,"2005","RS","Ajuricaba",2005-01-28,"R5","Jan",82,-28.239,-53.771,10,2004-09-15,135,20,"South"
"149",2004-11-07,"2005","RS","Arroio Grande",2005-03-03,"R5","Mar",116,-32.238,-53.087,10,2004-09-15,169,25,"South"
"150",2004-11-07,"2005","RS","Caiçara",2005-01-27,"R1","Jan",81,-27.274,-53.432,6,2004-09-15,134,20,"South"
"151",2004-11-07,"2005","RS","Camaquã",2005-03-17,"R5","Mar",130,-30.851,-51.812,10,2004-09-15,183,27,"South"
"152",2004-11-07,"2005","RS","Candelária",2005-02-15,"R3","Feb",100,-29.669,-52.789,8,2004-09-15,153,23,"South"
"153",2004-11-07,"2005","RS","Chiapetta",2005-02-18,"R5","Feb",103,-27.923,-53.941,10,2004-09-15,156,23,"South"
"154",2004-11-07,"2005","RS","Colinas",2005-02-17,"R3","Feb",102,-29.388,-51.87,8,2004-09-15,155,23,"South"
"155",2004-11-07,"2005","RS","Constantina",2005-01-28,"R3","Jan",82,-27.735,-52.992,8,2004-09-15,135,20,"South"
"156",2004-11-07,"2005","RS","Cruz Alta",2005-02-16,"R2","Feb",101,-28.639,-53.606,7,2004-09-15,154,23,"South"
"157",2004-11-07,"2005","RS","Erechim",2005-02-01,"R3","Feb",86,-27.634,-52.274,8,2004-09-15,139,21,"South"
"158",2004-11-07,"2005","RS","Esmeralda",2005-03-10,"R5","Mar",123,-28.054,-51.19,10,2004-09-15,176,26,"South"
"159",2004-11-07,"2005","RS","Frederico Westphalen",2005-01-24,"R3","Jan",78,-27.359,-53.394,8,2004-09-15,131,20,"South"
"160",2004-11-07,"2005","RS","Gaurama",2005-01-28,"R3","Jan",82,-27.584,-52.094,8,2004-09-15,135,20,"South"
"161",2004-11-07,"2005","RS","Jaguarão",2005-03-03,"R5","Mar",116,-32.566,-53.376,10,2004-09-15,169,25,"South"
"162",2004-11-07,"2005","RS","Manoel Viana",2005-03-21,"R5","Mar",134,-29.589,-55.483,10,2004-09-15,187,28,"South"
"163",2004-11-07,"2005","RS","Passo Fundo",2005-02-09,"R3","Feb",94,-28.263,-52.407,8,2004-09-15,147,22,"South"
"164",2004-11-07,"2005","RS","Pelotas",2005-03-09,"R5","Mar",122,-31.772,-52.343,10,2004-09-15,175,26,"South"
"165",2004-11-07,"2005","RS","Pinhal da Serra",2005-03-17,"R5","Mar",130,-27.874,-51.17,10,2004-09-15,183,27,"South"
"166",2004-11-07,"2005","RS","Rio Pardo",2005-03-16,"R5","Mar",129,-29.99,-52.378,10,2004-09-15,182,27,"South"
"167",2004-11-07,"2005","RS","Rodeio Bonito",2005-02-04,"R5","Feb",89,-27.471,-53.169,10,2004-09-15,142,21,"South"
"168",2004-11-07,"2005","RS","São Lourenço do Sul",2005-03-11,"R5","Mar",124,-31.365,-51.978,10,2004-09-15,177,26,"South"
"169",2004-11-07,"2005","RS","Taquaruçu do Sul",2005-02-04,"R2","Feb",89,-27.4,-53.467,7,2004-09-15,142,21,"South"
"170",2004-11-07,"2005","RS","Três Palmeiras",2005-02-24,"R5","Feb",109,-27.615,-52.841,10,2004-09-15,162,24,"South"
"171",2004-11-07,"2005","RS","Trindade do Sul",2005-01-28,"R5","Jan",82,-27.522,-52.894,10,2004-09-15,135,20,"South"
"172",2004-11-07,"2005","RS","Vista Alegre",2005-02-04,"R2","Feb",89,-27.367,-53.49,7,2004-09-15,142,21,"South"
"173",2004-11-07,"2005","SC","Água Doce",2005-02-14,"R4","Feb",99,-26.998,-51.556,9,2004-09-15,152,23,"South"
"174",2004-11-07,"2005","SC","Bom Jesus",2005-02-21,"R5","Feb",106,-26.734,-52.394,10,2004-09-15,159,24,"South"
"175",2004-11-07,"2005","SC","Brunópolis",2005-02-13,"R4","Feb",98,-27.306,-50.868,9,2004-09-15,151,23,"South"
"176",2004-11-07,"2005","SC","Campos Novos",2005-02-13,"R4","Feb",98,-27.402,-51.225,9,2004-09-15,151,23,"South"
"177",2004-11-07,"2005","SC","Capinzal",2005-02-09,"R5","Feb",94,-27.344,-51.612,10,2004-09-15,147,22,"South"
"178",2004-11-07,"2005","SC","Caxambu do Sul",2005-02-04,"R5","Feb",89,-27.161,-52.879,10,2004-09-15,142,21,"South"
"179",2004-11-07,"2005","SC","Chapecó",2005-01-19,"R5","Jan",73,-27.096,-52.618,10,2004-09-15,126,19,"South"
"180",2004-11-07,"2005","SC","Correia Pinto",2005-03-02,"R5","Mar",115,-27.585,-50.361,10,2004-09-15,168,25,"South"
"181",2004-11-07,"2005","SC","Curitibanos",2005-02-21,"R4","Feb",106,-27.283,-50.584,9,2004-09-15,159,24,"South"
"182",2004-11-07,"2005","SC","Erval Velho",2005-02-09,"R4","Feb",94,-27.276,-51.442,9,2004-09-15,147,22,"South"
"183",2004-11-07,"2005","SC","Frei Rogério",2005-02-14,"R4","Feb",99,-27.175,-50.805,9,2004-09-15,152,23,"South"
"184",2004-11-07,"2005","SC","Guatambú",2005-02-10,"R5","Feb",95,-27.132,-52.787,10,2004-09-15,148,22,"South"
"185",2004-11-07,"2005","SC","Irineópolis",2005-02-09,"R3","Feb",94,-26.239,-50.8,8,2004-09-15,147,22,"South"
"186",2004-11-07,"2005","SC","Itaiópolis",2005-01-17,"R3","Jan",71,-26.336,-49.906,8,2004-09-15,124,19,"South"
"187",2004-11-07,"2005","SC","Lages",2005-03-09,"R5","Mar",122,-27.816,-50.326,10,2004-09-15,175,26,"South"
"188",2004-11-07,"2005","SC","Lajeado Grande",2005-02-01,"R5","Feb",86,-26.858,-52.567,10,2004-09-15,139,21,"South"
"189",2004-11-07,"2005","SC","Major Vieira",2005-01-21,"R5","Jan",75,-26.368,-50.328,10,2004-09-15,128,19,"South"
"190",2004-11-07,"2005","SC","Maravilha",2005-02-02,"R4","Feb",87,-26.761,-53.173,9,2004-09-15,140,21,"South"
"191",2004-11-07,"2005","SC","Pinhalzinho",2005-01-24,"R5","Jan",78,-26.848,-52.992,10,2004-09-15,131,20,"South"
"192",2004-11-07,"2005","SC","Ponte Serrada",2005-02-02,"R2","Feb",87,-26.872,-52.016,7,2004-09-15,140,21,"South"
"193",2004-11-07,"2005","SC","São Miguel do Oeste",2005-02-02,"R5","Feb",87,-26.725,-53.518,10,2004-09-15,140,21,"South"
"194",2004-11-07,"2005","SC","Xanxerê",2005-02-04,"R4","Feb",89,-26.877,-52.404,9,2004-09-15,142,21,"South"
"195",2004-11-07,"2005","SC","Xaxim",2005-02-09,"R2","Feb",94,-26.962,-52.535,7,2004-09-15,147,22,"South"
"196",2005-08-07,"2006","PR","Cafelândia",2005-11-09,"R3","Nov",94,-24.618,-53.32,8,2005-09-15,55,8,"South"
"197",2005-09-07,"2006","PR","Boa Vista da Aparecida",2005-11-21,"R1","Nov",75,-25.436,-53.408,6,2005-09-15,67,10,"South"
"198",2005-09-07,"2006","PR","Campo Mourão",2005-11-09,"R2","Nov",63,-24.046,-52.383,7,2005-09-15,55,8,"South"
"199",2005-09-07,"2006","PR","Jaguapitã",2005-11-30,"R2","Nov",84,-23.113,-51.532,7,2005-09-15,76,11,"South"
"200",2005-09-07,"2006","PR","Maringá",2005-11-29,"R5","Nov",83,-23.425,-51.939,10,2005-09-15,75,11,"South"
"201",2005-09-07,"2006","PR","Santa Lúcia",2005-12-08,"R4","Dec",92,-25.407,-53.566,9,2005-09-15,84,12,"South"
"202",2005-09-07,"2006","PR","São Pedro do Iguaçu",2005-12-05,"R5","Dec",89,-24.936,-53.855,10,2005-09-15,81,12,"South"
"203",2005-09-07,"2006","PR","Ubiratã",2005-12-02,"R5","Dec",86,-24.545,-52.988,10,2005-09-15,78,11,"South"
"204",2005-09-07,"2006","RS","Almirante Tamandaré do Sul",2006-01-19,"R3","Jan",134,-28.113,-52.909,8,2005-09-15,126,19,"South"
"205",2005-09-07,"2006","RS","Marau",2006-01-10,"R2","Jan",125,-28.449,-52.2,7,2005-09-15,117,18,"South"
"206",2005-09-07,"2006","RS","Não-Me-Toque",2006-01-19,"R2","Jan",134,-28.459,-52.821,7,2005-09-15,126,19,"South"
"207",2005-09-07,"2006","RS","Nicolau Vergueiro",2006-01-16,"R3","Jan",131,-28.536,-52.464,8,2005-09-15,123,19,"South"
"208",2005-09-07,"2006","RS","Santo Antônio do Planalto",2006-01-12,"R3","Jan",127,-28.396,-52.691,8,2005-09-15,119,18,"South"
"209",2005-10-07,"2006","PR","Arapongas",2005-12-06,"R4","Dec",60,-23.419,-51.424,9,2005-09-15,82,12,"South"
"210",2005-10-07,"2006","PR","Assis Chateaubriand",2006-01-02,"R4","Jan",87,-24.42,-53.521,9,2005-09-15,109,17,"South"
"211",2005-10-07,"2006","PR","Bandeirantes",2006-01-31,"R4","Jan",116,-23.11,-50.368,9,2005-09-15,138,21,"South"
"212",2005-10-07,"2006","PR","Bom Sucesso",2006-01-11,"R2","Jan",96,-23.71,-51.764,7,2005-09-15,118,18,"South"
"213",2005-10-07,"2006","PR","Borrazópolis",2006-02-02,"R5","Feb",118,-23.941,-51.588,10,2005-09-15,140,21,"South"
"214",2005-10-07,"2006","PR","Brasilândia do Sul",2006-01-09,"R4","Jan",94,-24.197,-53.525,9,2005-09-15,116,18,"South"
"215",2005-10-07,"2006","PR","Cambira",2006-02-02,"R5","Feb",118,-23.583,-51.578,10,2005-09-15,140,21,"South"
"216",2005-10-07,"2006","PR","Chopinzinho",2006-01-04,"R3","Jan",89,-25.856,-52.523,8,2005-09-15,111,17,"South"
"217",2005-10-07,"2006","PR","Coronel Vivida",2006-01-30,"R5","Jan",115,-25.98,-52.568,10,2005-09-15,137,21,"South"
"218",2005-10-07,"2006","PR","Cruzmaltina",2006-02-01,"R5","Feb",117,-24.013,-51.459,10,2005-09-15,139,21,"South"
"219",2005-10-07,"2006","PR","Esperança Nova",2005-12-19,"R5","Dec",73,-23.724,-53.811,10,2005-09-15,95,14,"South"
"220",2005-10-07,"2006","PR","Iporã",2006-01-02,"R4","Jan",87,-24.003,-53.704,9,2005-09-15,109,17,"South"
"221",2005-10-07,"2006","PR","Jandaia do Sul",2006-01-02,"R5","Jan",87,-23.603,-51.643,10,2005-09-15,109,17,"South"
"222",2005-10-07,"2006","PR","Kaloré",2006-02-02,"R5","Feb",118,-23.817,-51.668,10,2005-09-15,140,21,"South"
"223",2005-10-07,"2006","PR","Londrina",2005-12-13,"R3","Dec",67,-23.31,-51.163,8,2005-09-15,89,13,"South"
"224",2005-10-07,"2006","PR","Mamborê",2005-11-22,"R4","Nov",46,-24.319,-52.53,9,2005-09-15,68,10,"South"
"225",2005-10-07,"2006","PR","Marialva",2006-02-01,"R5","Feb",117,-23.485,-51.792,10,2005-09-15,139,21,"South"
"226",2005-10-07,"2006","PR","Marilândia do Sul",2006-02-01,"R5","Feb",117,-23.745,-51.308,10,2005-09-15,139,21,"South"
"227",2005-10-07,"2006","PR","Maripá",2005-12-11,"R5","Dec",65,-24.418,-53.83,10,2005-09-15,87,13,"South"
"228",2005-10-07,"2006","PR","Medianeira",2005-12-06,"R4","Dec",60,-25.295,-54.094,9,2005-09-15,82,12,"South"
"229",2005-10-07,"2006","PR","Mercedes",2005-12-15,"R4","Dec",69,-24.454,-54.162,9,2005-09-15,91,13,"South"
"230",2005-10-07,"2006","PR","Nova Prata do Iguaçu",2006-01-17,"R1","Jan",102,-25.633,-53.347,6,2005-09-15,124,19,"South"
"231",2005-10-07,"2006","PR","Pato Branco",2006-01-24,"R2","Jan",109,-26.229,-52.671,7,2005-09-15,131,20,"South"
"232",2005-10-07,"2006","PR","Pérola do Oeste",2006-01-30,"R6","Jan",115,-25.824,-53.74,11,2005-09-15,137,21,"South"
"233",2005-10-07,"2006","PR","Primeiro de Maio",2006-01-23,"R5","Jan",108,-22.851,-51.028,10,2005-09-15,130,20,"South"
"234",2005-10-07,"2006","PR","Rancho Alegre",2006-01-13,"R4","Jan",98,-23.07,-50.913,9,2005-09-15,120,18,"South"
"235",2005-10-07,"2006","PR","Rio Branco do Ivaí",2005-12-08,"R2","Dec",62,-24.324,-51.313,7,2005-09-15,84,12,"South"
"236",2005-10-07,"2006","PR","Rolândia",2005-12-12,"R2","Dec",66,-23.31,-51.369,7,2005-09-15,88,13,"South"
"237",2005-10-07,"2006","PR","São Jerônimo da Serra",2005-12-21,"R2","Dec",75,-23.728,-50.741,7,2005-09-15,97,14,"South"
"238",2005-10-07,"2006","PR","São Miguel do Iguaçu",2005-12-06,"R4","Dec",60,-25.348,-54.238,9,2005-09-15,82,12,"South"
"239",2005-10-07,"2006","PR","Tibagi",2005-12-28,"R2","Dec",82,-24.509,-50.414,7,2005-09-15,104,15,"South"
"240",2005-10-07,"2006","PR","Tupãssi",2005-12-16,"R5","Dec",70,-24.588,-53.512,10,2005-09-15,92,13,"South"
"241",2005-10-07,"2006","PR","Vera Cruz do Oeste",2006-01-17,"R3","Jan",102,-25.058,-53.877,8,2005-09-15,124,19,"South"
"242",2005-10-07,"2006","PR","Verê",2006-03-07,"R5","Mar",151,-25.881,-52.908,10,2005-09-15,173,26,"South"
"243",2005-10-07,"2006","PR","Vitorino",2006-01-26,"R3","Jan",111,-26.277,-52.784,8,2005-09-15,133,20,"South"
"244",2005-10-07,"2006","RS","Campinas do Sul",2006-01-26,"R3","Jan",111,-27.716,-52.628,8,2005-09-15,133,20,"South"
"245",2005-10-07,"2006","RS","Carazinho",2006-01-31,"R1","Jan",116,-28.284,-52.786,6,2005-09-15,138,21,"South"
"246",2005-10-07,"2006","RS","Chiapetta",2006-02-16,"R5","Feb",132,-27.923,-53.941,10,2005-09-15,154,23,"South"
"247",2005-10-07,"2006","RS","Doutor Maurício Cardoso",2006-01-25,"R5","Jan",110,-27.506,-54.361,10,2005-09-15,132,20,"South"
"248",2005-10-07,"2006","RS","Erebango",2006-02-01,"R4","Feb",117,-27.855,-52.302,9,2005-09-15,139,21,"South"
"249",2005-10-07,"2006","RS","Erechim",2006-01-26,"R3","Jan",111,-27.634,-52.274,8,2005-09-15,133,20,"South"
"250",2005-10-07,"2006","RS","Humaitá",2006-01-25,"R1","Jan",110,-27.563,-53.974,6,2005-09-15,132,20,"South"
"251",2005-10-07,"2006","RS","Ijuí",2006-01-24,"R1","Jan",109,-28.388,-53.915,6,2005-09-15,131,20,"South"
"252",2005-10-07,"2006","RS","Quatro Irmãos",2006-01-26,"R2","Jan",111,-27.821,-52.439,7,2005-09-15,133,20,"South"
"253",2005-10-07,"2006","RS","Santo Augusto",2006-02-15,"R4","Feb",131,-27.851,-53.777,9,2005-09-15,153,23,"South"
"254",2005-10-07,"2006","SC","Irineópolis",2006-02-01,"R2","Feb",117,-26.239,-50.8,7,2005-09-15,139,21,"South"
"255",2005-10-07,"2006","SC","Major Vieira",2006-02-01,"R2","Feb",117,-26.368,-50.328,7,2005-09-15,139,21,"South"
"256",2005-10-07,"2006","SC","Passos Maia",2006-02-07,"R3","Feb",123,-26.78,-52.059,8,2005-09-15,145,22,"South"
"257",2005-10-07,"2006","SC","Rio do Oeste",2006-01-24,"R3","Jan",109,-27.193,-49.797,8,2005-09-15,131,20,"South"
"258",2005-10-07,"2006","SC","Romelândia",2006-01-20,"R5","Jan",105,-26.676,-53.314,10,2005-09-15,127,19,"South"
"259",2005-10-07,"2006","SC","São Lourenço do Oeste",2006-01-31,"R4","Jan",116,-26.359,-52.851,9,2005-09-15,138,21,"South"
"260",2005-11-07,"2006","PR","Ampére",2006-01-27,"R3","Jan",81,-25.915,-53.473,8,2005-09-15,134,20,"South"
"261",2005-11-07,"2006","PR","Apucarana",2005-12-29,"Vn","Dec",52,-23.551,-51.461,5,2005-09-15,105,15,"South"
"262",2005-11-07,"2006","PR","Assaí",2006-01-13,"R4","Jan",67,-23.373,-50.841,9,2005-09-15,120,18,"South"
"263",2005-11-07,"2006","PR","Astorga",2006-01-19,"R3","Jan",73,-23.233,-51.666,8,2005-09-15,126,19,"South"
"264",2005-11-07,"2006","PR","Bom Sucesso do Sul",2006-03-07,"Vn","Mar",120,-26.076,-52.834,5,2005-09-15,173,26,"South"
"265",2005-11-07,"2006","PR","Cambé",2006-01-10,"R1","Jan",64,-23.276,-51.278,6,2005-09-15,117,18,"South"
"266",2005-11-07,"2006","PR","Cascavel",2006-01-24,"R1","Jan",78,-24.956,-53.455,6,2005-09-15,131,20,"South"
"267",2005-11-07,"2006","PR","Catanduvas",2006-01-17,"R1","Jan",71,-25.203,-53.157,6,2005-09-15,124,19,"South"
"268",2005-11-07,"2006","PR","Clevelândia",2006-01-27,"R2","Jan",81,-26.396,-52.471,7,2005-09-15,134,20,"South"
"269",2005-11-07,"2006","PR","Cruzeiro do Oeste",2005-11-09,"R4","Nov",2,-23.785,-53.073,9,2005-09-15,55,8,"South"
"270",2005-11-07,"2006","PR","Dois Vizinhos",2006-01-26,"R5","Jan",80,-25.734,-53.057,10,2005-09-15,133,20,"South"
"271",2005-11-07,"2006","PR","Faxinal",2005-11-22,"R2","Nov",15,-24.001,-51.32,7,2005-09-15,68,10,"South"
"272",2005-11-07,"2006","PR","Flor da Serra do Sul",2006-02-01,"R5","Feb",86,-26.257,-53.307,10,2005-09-15,139,21,"South"
"273",2005-11-07,"2006","PR","Florestópolis",2006-02-22,"V3","Feb",107,-22.863,-51.387,4,2005-09-15,160,24,"South"
"274",2005-11-07,"2006","PR","Francisco Beltrão",2006-01-24,"R5","Jan",78,-26.081,-53.055,10,2005-09-15,131,20,"South"
"275",2005-11-07,"2006","PR","Ibiporã",2006-01-06,"R1","Jan",60,-23.269,-51.048,6,2005-09-15,113,17,"South"
"276",2005-11-07,"2006","PR","Iracema do Oeste",2006-01-26,"R4","Jan",80,-24.428,-53.355,9,2005-09-15,133,20,"South"
"277",2005-11-07,"2006","PR","Itaipulândia",2005-11-30,"R1","Nov",23,-25.137,-54.302,6,2005-09-15,76,11,"South"
"278",2005-11-07,"2006","PR","Itambé",2005-12-29,"R4","Dec",52,-23.661,-51.99,9,2005-09-15,105,15,"South"
"279",2005-11-07,"2006","PR","Jataizinho",2006-01-06,"R3","Jan",60,-23.254,-50.98,8,2005-09-15,113,17,"South"
"280",2005-11-07,"2006","PR","Jesuítas",2006-01-26,"R3","Jan",80,-24.385,-53.388,8,2005-09-15,133,20,"South"
"281",2005-11-07,"2006","PR","Lapa",2006-02-04,"R3","Feb",89,-25.77,-49.716,8,2005-09-15,142,21,"South"
"282",2005-11-07,"2006","PR","Laranjeiras do Sul",2006-01-17,"R2","Jan",71,-25.408,-52.416,7,2005-09-15,124,19,"South"
"283",2005-11-07,"2006","PR","Mandaguari",2006-01-19,"R4","Jan",73,-23.548,-51.671,9,2005-09-15,126,19,"South"
"284",2005-11-07,"2006","PR","Marechal Cândido Rondon",2005-11-16,"R1","Nov",9,-24.556,-54.057,6,2005-09-15,62,9,"South"
"285",2005-11-07,"2006","PR","Mariluz",2005-11-09,"R5","Nov",2,-24.002,-53.146,10,2005-09-15,55,8,"South"
"286",2005-11-07,"2006","PR","Marmeleiro",2006-01-30,"R1","Jan",84,-26.149,-53.026,6,2005-09-15,137,21,"South"
"287",2005-11-07,"2006","PR","Mauá da Serra",2006-02-22,"V3","Feb",107,-23.901,-51.229,4,2005-09-15,160,24,"South"
"288",2005-11-07,"2006","PR","Moreira Sales",2006-01-17,"R5","Jan",71,-24.062,-53.007,10,2005-09-15,124,19,"South"
"289",2005-11-07,"2006","PR","Nova Aurora",2005-12-01,"R4","Dec",24,-24.529,-53.256,9,2005-09-15,77,11,"South"
"290",2005-11-07,"2006","PR","Nova Cantu",2005-11-17,"R5","Nov",10,-24.673,-52.569,10,2005-09-15,63,9,"South"
"291",2005-11-07,"2006","PR","Palmas",2006-01-27,"R2","Jan",81,-26.484,-51.991,7,2005-09-15,134,20,"South"
"292",2005-11-07,"2006","PR","Palotina",2005-12-20,"R3","Dec",43,-24.284,-53.84,8,2005-09-15,96,14,"South"
"293",2005-11-07,"2006","PR","Pitanga",2005-11-25,"R5","Nov",18,-24.757,-51.761,10,2005-09-15,71,10,"South"
"294",2005-11-07,"2006","PR","Ponta Grossa",2006-03-01,"R5","Mar",114,-25.095,-50.162,10,2005-09-15,167,25,"South"
"295",2005-11-07,"2006","PR","Quarto Centenário",2005-11-30,"R3","Nov",23,-24.279,-53.076,8,2005-09-15,76,11,"South"
"296",2005-11-07,"2006","PR","Renascença",2006-01-31,"R1","Jan",85,-26.158,-52.969,6,2005-09-15,138,21,"South"
"297",2005-11-07,"2006","PR","Santa Izabel do Oeste",2006-01-31,"R5","Jan",85,-25.821,-53.484,10,2005-09-15,138,21,"South"
"298",2005-11-07,"2006","PR","Santo Antônio do Paraíso",2006-01-20,"R4","Jan",74,-23.494,-50.646,9,2005-09-15,127,19,"South"
"299",2005-11-07,"2006","PR","São Jorge do Oeste",2006-01-26,"R5","Jan",80,-25.706,-52.918,10,2005-09-15,133,20,"South"
"300",2005-11-07,"2006","PR","São Sebastião da Amoreira",2006-01-12,"R3","Jan",66,-23.465,-50.761,8,2005-09-15,119,18,"South"
"301",2005-11-07,"2006","PR","Sertaneja",2006-01-23,"R5","Jan",77,-23.037,-50.838,10,2005-09-15,130,20,"South"
"302",2005-11-07,"2006","PR","Sertanópolis",2006-01-11,"R2","Jan",65,-23.059,-51.036,7,2005-09-15,118,18,"South"
"303",2005-11-07,"2006","PR","Tamarana",2006-01-06,"R3","Jan",60,-23.723,-51.097,8,2005-09-15,113,17,"South"
"304",2005-11-07,"2006","PR","Toledo",2006-01-02,"R3","Jan",56,-24.714,-53.743,8,2005-09-15,109,17,"South"
"305",2005-11-07,"2006","PR","Três Barras do Paraná",2005-12-13,"R5","Dec",36,-25.419,-53.181,10,2005-09-15,89,13,"South"
"306",2005-11-07,"2006","RS","Ajuricaba",2006-02-14,"R4","Feb",99,-28.239,-53.771,9,2005-09-15,152,23,"South"
"307",2005-11-07,"2006","RS","Arvorezinha",2006-02-01,"R2","Feb",86,-28.872,-52.175,7,2005-09-15,139,21,"South"
"308",2005-11-07,"2006","RS","Áurea",2006-03-08,"R5","Mar",121,-27.698,-52.049,10,2005-09-15,174,26,"South"
"309",2005-11-07,"2006","RS","Barão de Cotegipe",2006-03-02,"R5","Mar",115,-27.621,-52.38,10,2005-09-15,168,25,"South"
"310",2005-11-07,"2006","RS","Boa Vista do Incra",2006-03-14,"R3","Mar",127,-28.819,-53.387,8,2005-09-15,180,27,"South"
"311",2005-11-07,"2006","RS","Bom Jesus",2006-02-03,"R3","Feb",88,-28.668,-50.417,8,2005-09-15,141,21,"South"
"312",2005-11-07,"2006","RS","Cachoeira do Sul",2006-02-18,"R5","Feb",103,-30.039,-52.894,10,2005-09-15,156,23,"South"
"313",2005-11-07,"2006","RS","Capão do Cipó",2006-02-01,"R2","Feb",86,-28.925,-54.692,7,2005-09-15,139,21,"South"
"314",2005-11-07,"2006","RS","Casca",2006-02-20,"R2","Feb",105,-28.561,-51.978,7,2005-09-15,158,24,"South"
"315",2005-11-07,"2006","RS","Chapada",2006-02-16,"R3","Feb",101,-28.055,-53.068,8,2005-09-15,154,23,"South"
"316",2005-11-07,"2006","RS","Charrua",2006-01-31,"R2","Jan",85,-27.952,-52.015,7,2005-09-15,138,21,"South"
"317",2005-11-07,"2006","RS","Ciríaco",2006-02-20,"R4","Feb",105,-28.344,-51.876,9,2005-09-15,158,24,"South"
"318",2005-11-07,"2006","RS","Constantina",2006-02-20,"R4","Feb",105,-27.735,-52.992,9,2005-09-15,158,24,"South"
"319",2005-11-07,"2006","RS","Coxilha",2006-01-26,"Vn","Jan",80,-28.127,-52.296,5,2005-09-15,133,20,"South"
"320",2005-11-07,"2006","RS","Cruz Alta",2006-01-12,"R5","Jan",66,-28.639,-53.606,10,2005-09-15,119,18,"South"
"321",2005-11-07,"2006","RS","Dois Irmãos das Missões",2006-01-26,"R2","Jan",80,-27.659,-53.531,7,2005-09-15,133,20,"South"
"322",2005-11-07,"2006","RS","Engenho Velho",2006-02-24,"R3","Feb",109,-27.708,-52.913,8,2005-09-15,162,24,"South"
"323",2005-11-07,"2006","RS","Entre Rios do Sul",2006-03-03,"R5","Mar",116,-27.528,-52.733,10,2005-09-15,169,25,"South"
"324",2005-11-07,"2006","RS","Ernestina",2006-02-07,"R2","Feb",92,-28.499,-52.573,7,2005-09-15,145,22,"South"
"325",2005-11-07,"2006","RS","Estação",2006-01-27,"R4","Jan",81,-27.911,-52.26,9,2005-09-15,134,20,"South"
"326",2005-11-07,"2006","RS","Estrela Velha",2006-02-16,"R5","Feb",101,-29.177,-53.159,10,2005-09-15,154,23,"South"
"327",2005-11-07,"2006","RS","Faxinalzinho",2006-03-21,"R5","Mar",134,-27.424,-52.673,10,2005-09-15,187,28,"South"
"328",2005-11-07,"2006","RS","Floriano Peixoto",2006-02-10,"R1","Feb",95,-27.861,-52.084,6,2005-09-15,148,22,"South"
"329",2005-11-07,"2006","RS","Fortaleza dos Valos",2006-02-06,"R6","Feb",91,-28.797,-53.223,11,2005-09-15,144,22,"South"
"330",2005-11-07,"2006","RS","Frederico Westphalen",2006-02-07,"R1","Feb",92,-27.359,-53.394,6,2005-09-15,145,22,"South"
"331",2005-11-07,"2006","RS","Getúlio Vargas",2006-01-12,"R2","Jan",66,-27.89,-52.228,7,2005-09-15,119,18,"South"
"332",2005-11-07,"2006","RS","Gramado dos Loureiros",2006-02-07,"R3","Feb",92,-27.444,-52.918,8,2005-09-15,145,22,"South"
"333",2005-11-07,"2006","RS","Igrejinha",2006-03-29,"R5","Mar",142,-29.574,-50.79,10,2005-09-15,195,29,"South"
"334",2005-11-07,"2006","RS","Ipiranga do Sul",2006-02-13,"R3","Feb",98,-27.937,-52.426,8,2005-09-15,151,23,"South"
"335",2005-11-07,"2006","RS","Júlio de Castilhos",2006-03-13,"R5","Mar",126,-29.227,-53.682,10,2005-09-15,179,27,"South"
"336",2005-11-07,"2006","RS","Mato Castelhano",2006-02-02,"R2","Feb",87,-28.278,-52.192,7,2005-09-15,140,21,"South"
"337",2005-11-07,"2006","RS","Maximiliano de Almeida",2006-02-15,"R3","Feb",100,-27.632,-51.803,8,2005-09-15,153,23,"South"
"338",2005-11-07,"2006","RS","Montauri",2006-03-09,"R5","Mar",122,-28.652,-52.07,10,2005-09-15,175,26,"South"
"339",2005-11-07,"2006","RS","Nonoai",2006-03-07,"Vn","Mar",120,-27.362,-52.771,5,2005-09-15,173,26,"South"
"340",2005-11-07,"2006","RS","Nova Alvorada",2006-03-07,"R5","Mar",120,-28.678,-52.166,10,2005-09-15,173,26,"South"
"341",2005-11-07,"2006","RS","Nova Boa Vista",2006-02-16,"R5","Feb",101,-27.994,-52.979,10,2005-09-15,154,23,"South"
"342",2005-11-07,"2006","RS","Nova Palma",2006-02-03,"R2","Feb",88,-29.472,-53.469,7,2005-09-15,141,21,"South"
"343",2005-11-07,"2006","RS","Nova Prata",2006-03-09,"R5","Mar",122,-28.784,-51.61,10,2005-09-15,175,26,"South"
"344",2005-11-07,"2006","RS","Nova Ramada",2006-03-01,"R4","Mar",114,-28.064,-53.697,9,2005-09-15,167,25,"South"
"345",2005-11-07,"2006","RS","Novo Barreiro",2006-02-16,"R5","Feb",101,-27.909,-53.108,10,2005-09-15,154,23,"South"
"346",2005-11-07,"2006","RS","Palmeira das Missões",2006-01-28,"R1","Jan",82,-27.899,-53.314,6,2005-09-15,135,20,"South"
"347",2005-11-07,"2006","RS","Panambi",2006-02-22,"R5","Feb",107,-28.293,-53.502,10,2005-09-15,160,24,"South"
"348",2005-11-07,"2006","RS","Passo Fundo",2006-01-31,"R1","Jan",85,-28.263,-52.407,6,2005-09-15,138,21,"South"
"349",2005-11-07,"2006","RS","Pontão",2006-02-02,"R5","Feb",87,-28.059,-52.677,10,2005-09-15,140,21,"South"
"350",2005-11-07,"2006","RS","Ponte Preta",2006-02-23,"R4","Feb",108,-27.654,-52.488,9,2005-09-15,161,24,"South"
"351",2005-11-07,"2006","RS","Porto Lucena",2006-03-17,"R5","Mar",130,-27.856,-55.016,10,2005-09-15,183,27,"South"
"352",2005-11-07,"2006","RS","Protásio Alves",2006-02-22,"R4","Feb",107,-28.757,-51.473,9,2005-09-15,160,24,"South"
"353",2005-11-07,"2006","RS","Restinga Seca",2006-02-22,"R4","Feb",107,-29.813,-53.375,9,2005-09-15,160,24,"South"
"354",2005-11-07,"2006","RS","Rio dos Índios",2006-02-16,"R1","Feb",101,-27.3,-52.841,6,2005-09-15,154,23,"South"
"355",2005-11-07,"2006","RS","Rondinha",2006-02-22,"R5","Feb",107,-27.828,-52.91,10,2005-09-15,160,24,"South"
"356",2005-11-07,"2006","RS","Sagrada Família",2006-02-16,"R3","Feb",101,-27.707,-53.136,8,2005-09-15,154,23,"South"
"357",2005-11-07,"2006","RS","Sananduva",2006-02-17,"R4","Feb",102,-27.95,-51.807,9,2005-09-15,155,23,"South"
"358",2005-11-07,"2006","RS","Santa Bárbara do Sul",2006-02-22,"R4","Feb",107,-28.358,-53.247,9,2005-09-15,160,24,"South"
"359",2005-11-07,"2006","RS","Santo Ângelo",2006-01-18,"R1","Jan",72,-28.299,-54.263,6,2005-09-15,125,19,"South"
"360",2005-11-07,"2006","RS","Santo Antônio do Palma",2006-03-27,"R7","Mar",140,-28.497,-52.025,12,2005-09-15,193,29,"South"
"361",2005-11-07,"2006","RS","Santo Expedito do Sul",2006-02-20,"R3","Feb",105,-27.908,-51.645,8,2005-09-15,158,24,"South"
"362",2005-11-07,"2006","RS","São Borja",2006-02-02,"R1","Feb",87,-28.661,-56.004,6,2005-09-15,140,21,"South"
"363",2005-11-07,"2006","RS","São Gabriel",2006-01-31,"R1","Jan",85,-30.336,-54.32,6,2005-09-15,138,21,"South"
"364",2005-11-07,"2006","RS","São Pedro das Missões",2006-02-15,"R2","Feb",100,-27.771,-53.255,7,2005-09-15,153,23,"South"
"365",2005-11-07,"2006","RS","Sarandi",2006-02-09,"R4","Feb",94,-27.944,-52.923,9,2005-09-15,147,22,"South"
"366",2005-11-07,"2006","RS","Sede Nova",2006-02-09,"R3","Feb",94,-27.635,-53.946,8,2005-09-15,147,22,"South"
"367",2005-11-07,"2006","RS","Serafina Corrêa",2006-03-02,"R5","Mar",115,-28.712,-51.935,10,2005-09-15,168,25,"South"
"368",2005-11-07,"2006","RS","Sertão",2006-02-22,"R2","Feb",107,-27.98,-52.26,7,2005-09-15,160,24,"South"
"369",2005-11-07,"2006","RS","Soledade",2006-03-07,"R5","Mar",120,-28.818,-52.51,10,2005-09-15,173,26,"South"
"370",2005-11-07,"2006","RS","Tapejara",2006-02-01,"R1","Feb",86,-28.068,-52.014,6,2005-09-15,139,21,"South"
"371",2005-11-07,"2006","RS","Tapera",2006-01-18,"R3","Jan",72,-28.626,-52.87,8,2005-09-15,125,19,"South"
"372",2005-11-07,"2006","RS","Três de Maio",2006-02-13,"R3","Feb",98,-27.773,-54.24,8,2005-09-15,151,23,"South"
"373",2005-11-07,"2006","RS","Três Palmeiras",2006-03-03,"R5","Mar",116,-27.615,-52.841,10,2005-09-15,169,25,"South"
"374",2005-11-07,"2006","RS","Trindade do Sul",2006-02-20,"R3","Feb",105,-27.522,-52.894,8,2005-09-15,158,24,"South"
"375",2005-11-07,"2006","RS","Vacaria",2006-02-15,"R1","Feb",100,-28.512,-50.934,6,2005-09-15,153,23,"South"
"376",2005-11-07,"2006","RS","Vale Verde",2006-03-30,"R6","Mar",143,-29.787,-52.184,11,2005-09-15,196,29,"South"
"377",2005-11-07,"2006","RS","Veranópolis",2006-03-02,"R5","Mar",115,-28.936,-51.549,10,2005-09-15,168,25,"South"
"378",2005-11-07,"2006","RS","Vespasiano Correa",2006-03-07,"R5","Mar",120,-29.068,-51.859,10,2005-09-15,173,26,"South"
"379",2005-11-07,"2006","RS","Viadutos",2006-01-31,"R1","Jan",85,-27.569,-52.02,6,2005-09-15,138,21,"South"
"380",2005-11-07,"2006","RS","Vila Maria",2006-02-20,"R5","Feb",105,-28.535,-52.154,10,2005-09-15,158,24,"South"
"381",2005-11-07,"2006","SC","Abdon Batista",2006-03-01,"R5","Mar",114,-27.611,-51.023,10,2005-09-15,167,25,"South"
"382",2005-11-07,"2006","SC","Abelardo Luz",2006-01-31,"R3","Jan",85,-26.565,-52.328,8,2005-09-15,138,21,"South"
"383",2005-11-07,"2006","SC","Alto Bela Vista",2006-03-08,"R5","Mar",121,-27.458,-51.879,10,2005-09-15,174,26,"South"
"384",2005-11-07,"2006","SC","Anchieta",2006-01-31,"R2","Jan",85,-26.534,-53.331,7,2005-09-15,138,21,"South"
"385",2005-11-07,"2006","SC","Belmonte",2006-03-14,"R5","Mar",127,-26.841,-53.576,10,2005-09-15,180,27,"South"
"386",2005-11-07,"2006","SC","Brunópolis",2006-03-07,"R6","Mar",120,-27.306,-50.868,11,2005-09-15,173,26,"South"
"387",2005-11-07,"2006","SC","Campo Erê",2006-01-28,"Vn","Jan",82,-26.394,-53.078,5,2005-09-15,135,20,"South"
"388",2005-11-07,"2006","SC","Campos Novos",2006-02-19,"R1","Feb",104,-27.402,-51.225,6,2005-09-15,157,24,"South"
"389",2005-11-07,"2006","SC","Canoinhas",2006-02-01,"R1","Feb",86,-26.177,-50.39,6,2005-09-15,139,21,"South"
"390",2005-11-07,"2006","SC","Caxambu do Sul",2006-02-06,"R3","Feb",91,-27.161,-52.879,8,2005-09-15,144,22,"South"
"391",2005-11-07,"2006","SC","Chapecó",2006-02-15,"R5","Feb",100,-27.096,-52.618,10,2005-09-15,153,23,"South"
"392",2005-11-07,"2006","SC","Curitibanos",2006-02-08,"R6","Feb",93,-27.283,-50.584,11,2005-09-15,146,22,"South"
"393",2005-11-07,"2006","SC","Descanso",2006-03-14,"R5","Mar",127,-26.826,-53.502,10,2005-09-15,180,27,"South"
"394",2005-11-07,"2006","SC","Dionísio Cerqueira",2006-02-02,"R1","Feb",87,-26.255,-53.64,6,2005-09-15,140,21,"South"
"395",2005-11-07,"2006","SC","Ipumirim",2006-02-24,"R5","Feb",109,-27.077,-52.136,10,2005-09-15,162,24,"South"
"396",2005-11-07,"2006","SC","Iraceminha",2006-03-15,"R5","Mar",128,-26.823,-53.274,10,2005-09-15,181,27,"South"
"397",2005-11-07,"2006","SC","Lages",2006-03-03,"R5","Mar",116,-27.816,-50.326,10,2005-09-15,169,25,"South"
"398",2005-11-07,"2006","SC","Nova Itaberaba",2006-04-24,"R5","Apr",168,-26.94,-52.812,10,2005-09-15,221,33,"South"
"399",2005-11-07,"2006","SC","Palma Sola",2006-01-30,"R1","Jan",84,-26.348,-53.278,6,2005-09-15,137,21,"South"
"400",2005-11-07,"2006","SC","Pinhalzinho",2006-02-07,"R2","Feb",92,-26.848,-52.992,7,2005-09-15,145,22,"South"
"401",2005-11-07,"2006","SC","Ponte Serrada",2006-02-13,"R2","Feb",98,-26.872,-52.016,7,2005-09-15,151,23,"South"
"402",2005-11-07,"2006","SC","São Domingos",2006-02-04,"R2","Feb",89,-26.558,-52.532,7,2005-09-15,142,21,"South"
"403",2005-11-07,"2006","SC","Vargeão",2006-02-03,"R5","Feb",88,-26.864,-52.155,10,2005-09-15,141,21,"South"
"404",2005-12-07,"2006","PR","Itapejara do Oeste",2006-03-10,"R1","Mar",93,-25.965,-52.816,6,2005-09-15,176,26,"South"
"405",2005-12-07,"2006","PR","Palmeira",2006-02-10,"Vn","Feb",65,-25.429,-50.006,5,2005-09-15,148,22,"South"
"406",2005-12-07,"2006","PR","Umuarama",2006-03-14,"R1","Mar",97,-23.766,-53.325,6,2005-09-15,180,27,"South"
"407",2005-12-07,"2006","RS","Jacutinga",2006-02-14,"R4","Feb",69,-27.729,-52.535,9,2005-09-15,152,23,"South"
"408",2005-12-07,"2006","RS","São José das Missões",2006-02-17,"R3","Feb",72,-27.78,-53.122,8,2005-09-15,155,23,"South"
"409",2005-12-07,"2006","SC","Campo Belo do Sul",2006-03-08,"R5","Mar",91,-27.899,-50.761,10,2005-09-15,174,26,"South"
"410",2005-12-07,"2006","SC","Zortéa",2006-03-23,"R5","Mar",106,-27.451,-51.555,10,2005-09-15,189,28,"South"
"411",2006-09-07,"2007","PR","Cambé",2007-01-03,"R5","Jan",118,-23.276,-51.278,10,2006-09-15,110,17,"South"
"412",2006-09-07,"2007","PR","Céu Azul",2006-12-14,"R5","Dec",98,-25.147,-53.849,10,2006-09-15,90,13,"South"
"413",2006-09-07,"2007","PR","Palotina",2006-12-07,"R4","Dec",91,-24.284,-53.84,9,2006-09-15,83,12,"South"
"414",2006-10-07,"2007","PR","Assis Chateaubriand",2007-01-10,"R2","Jan",95,-24.42,-53.521,7,2006-09-15,117,18,"South"
"415",2006-10-07,"2007","PR","Cafelândia",2006-12-22,"R3","Dec",76,-24.618,-53.32,8,2006-09-15,98,14,"South"
"416",2006-10-07,"2007","PR","Campina da Lagoa",2006-12-15,"R3","Dec",69,-24.592,-52.799,8,2006-09-15,91,13,"South"
"417",2006-10-07,"2007","PR","Carlópolis",2007-01-17,"R4","Jan",102,-23.425,-49.721,9,2006-09-15,124,19,"South"
"418",2006-10-07,"2007","PR","Catanduvas",2007-01-04,"R3","Jan",89,-25.203,-53.157,8,2006-09-15,111,17,"South"
"419",2006-10-07,"2007","PR","Chopinzinho",2006-12-22,"R2","Dec",76,-25.856,-52.523,7,2006-09-15,98,14,"South"
"420",2006-10-07,"2007","PR","Corbélia",2007-01-15,"R4","Jan",100,-24.799,-53.307,9,2006-09-15,122,19,"South"
"421",2006-10-07,"2007","PR","Diamante do Oeste",2007-01-16,"R6","Jan",101,-24.943,-54.103,11,2006-09-15,123,19,"South"
"422",2006-10-07,"2007","PR","Farol",2007-01-23,"R1","Jan",108,-24.1,-52.623,6,2006-09-15,130,20,"South"
"423",2006-10-07,"2007","PR","Floresta",2007-01-19,"R4","Jan",104,-23.599,-52.081,9,2006-09-15,126,19,"South"
"424",2006-10-07,"2007","PR","Foz do Iguaçu",2007-01-16,"R3","Jan",101,-25.548,-54.588,8,2006-09-15,123,19,"South"
"425",2006-10-07,"2007","PR","Goioerê",2007-01-10,"R2","Jan",95,-24.185,-53.028,7,2006-09-15,117,18,"South"
"426",2006-10-07,"2007","PR","Guaíra",2007-01-04,"R3","Jan",89,-24.08,-54.256,8,2006-09-15,111,17,"South"
"427",2006-10-07,"2007","PR","Guaraniaçu",2007-01-02,"R5","Jan",87,-25.101,-52.878,10,2006-09-15,109,17,"South"
"428",2006-10-07,"2007","PR","Honório Serpa",2007-01-09,"R1","Jan",94,-26.141,-52.387,6,2006-09-15,116,18,"South"
"429",2006-10-07,"2007","PR","Ibiporã",2007-01-09,"R5","Jan",94,-23.269,-51.048,10,2006-09-15,116,18,"South"
"430",2006-10-07,"2007","PR","Janiópolis",2007-01-02,"R3","Jan",87,-24.142,-52.782,8,2006-09-15,109,17,"South"
"431",2006-10-07,"2007","PR","Mamborê",2007-01-17,"Vn","Jan",102,-24.319,-52.53,5,2006-09-15,124,19,"South"
"432",2006-10-07,"2007","PR","Maringá",2007-01-19,"R5","Jan",104,-23.425,-51.939,10,2006-09-15,126,19,"South"
"433",2006-10-07,"2007","PR","Maripá",2007-01-25,"R4","Jan",110,-24.418,-53.83,9,2006-09-15,132,20,"South"
"434",2006-10-07,"2007","PR","Matelândia",2007-01-16,"R5","Jan",101,-25.241,-53.996,10,2006-09-15,123,19,"South"
"435",2006-10-07,"2007","PR","Medianeira",2007-01-18,"R4","Jan",103,-25.295,-54.094,9,2006-09-15,125,19,"South"
"436",2006-10-07,"2007","PR","Missal",2007-01-08,"R5","Jan",93,-25.092,-54.248,10,2006-09-15,115,18,"South"
"437",2006-10-07,"2007","PR","Moreira Sales",2007-01-02,"R5","Jan",87,-24.062,-53.007,10,2006-09-15,109,17,"South"
"438",2006-10-07,"2007","PR","Nova Aurora",2006-12-07,"R1","Dec",61,-24.529,-53.256,6,2006-09-15,83,12,"South"
"439",2006-10-07,"2007","PR","Ortigueira",2006-12-21,"R5","Dec",75,-24.208,-50.949,10,2006-09-15,97,14,"South"
"440",2006-10-07,"2007","PR","Peabiru",2006-12-19,"R3","Dec",73,-23.913,-52.343,8,2006-09-15,95,14,"South"
"441",2006-10-07,"2007","PR","Quarto Centenário",2007-01-05,"R4","Jan",90,-24.279,-53.076,9,2006-09-15,112,17,"South"
"442",2006-10-07,"2007","PR","Quatro Pontes",2007-01-08,"R5","Jan",93,-24.575,-53.977,10,2006-09-15,115,18,"South"
"443",2006-10-07,"2007","PR","Quinta do Sol",2007-01-26,"R3","Jan",111,-23.852,-52.13,8,2006-09-15,133,20,"South"
"444",2006-10-07,"2007","PR","Ramilândia",2007-01-12,"R5","Jan",97,-25.12,-54.025,10,2006-09-15,119,18,"South"
"445",2006-10-07,"2007","PR","Realeza",2007-01-11,"R3","Jan",96,-25.767,-53.527,8,2006-09-15,118,18,"South"
"446",2006-10-07,"2007","PR","Renascença",2007-01-10,"R5","Jan",95,-26.158,-52.969,10,2006-09-15,117,18,"South"
"447",2006-10-07,"2007","PR","Rio Bonito do Iguaçu",2007-01-09,"R4","Jan",94,-25.491,-52.526,9,2006-09-15,116,18,"South"
"448",2006-10-07,"2007","PR","Santa Helena",2007-01-18,"R3","Jan",103,-24.86,-54.333,8,2006-09-15,125,19,"South"
"449",2006-10-07,"2007","PR","Santa Tereza do Oeste",2007-01-01,"R5","Jan",86,-25.052,-53.633,10,2006-09-15,108,17,"South"
"450",2006-10-07,"2007","PR","Santana do Itararé",2006-12-22,"R3","Dec",76,-23.755,-49.629,8,2006-09-15,98,14,"South"
"451",2006-10-07,"2007","PR","São João",2007-01-04,"R1","Jan",89,-25.828,-52.725,6,2006-09-15,111,17,"South"
"452",2006-10-07,"2007","PR","São Miguel do Iguaçu",2007-01-12,"R3","Jan",97,-25.348,-54.238,8,2006-09-15,119,18,"South"
"453",2006-10-07,"2007","PR","Serranópolis do Iguaçu",2006-12-19,"R3","Dec",73,-25.38,-54.052,8,2006-09-15,95,14,"South"
"454",2006-10-07,"2007","PR","Terra Boa",2007-01-26,"R5","Jan",111,-23.768,-52.444,10,2006-09-15,133,20,"South"
"455",2006-10-07,"2007","PR","Toledo",2007-01-03,"R3","Jan",88,-24.714,-53.743,8,2006-09-15,110,17,"South"
"456",2006-10-07,"2007","PR","Três Barras do Paraná",2007-01-08,"R5","Jan",93,-25.419,-53.181,10,2006-09-15,115,18,"South"
"457",2006-10-07,"2007","PR","Ubiratã",2007-01-02,"R5","Jan",87,-24.545,-52.988,10,2006-09-15,109,17,"South"
"458",2006-10-07,"2007","PR","Vera Cruz do Oeste",2007-01-17,"R4","Jan",102,-25.058,-53.877,9,2006-09-15,124,19,"South"
"459",2006-10-07,"2007","RS","Erebango",2007-01-16,"R3","Jan",101,-27.855,-52.302,8,2006-09-15,123,19,"South"
"460",2006-10-07,"2007","RS","Erechim",2007-02-08,"R5","Feb",124,-27.634,-52.274,10,2006-09-15,146,22,"South"
"461",2006-10-07,"2007","RS","Frederico Westphalen",2007-01-17,"R5","Jan",102,-27.359,-53.394,10,2006-09-15,124,19,"South"
"462",2006-10-07,"2007","RS","Ipiranga do Sul",2007-01-12,"R2","Jan",97,-27.937,-52.426,7,2006-09-15,119,18,"South"
"463",2006-10-07,"2007","RS","Passo Fundo",2007-01-30,"R6","Jan",115,-28.263,-52.407,11,2006-09-15,137,21,"South"
"464",2006-10-07,"2007","RS","Pontão",2007-01-23,"R5","Jan",108,-28.059,-52.677,10,2006-09-15,130,20,"South"
"465",2006-10-07,"2007","RS","Sananduva",2007-02-27,"R6","Feb",143,-27.95,-51.807,11,2006-09-15,165,25,"South"
"466",2006-10-07,"2007","RS","Tapejara",2007-01-30,"R6","Jan",115,-28.068,-52.014,11,2006-09-15,137,21,"South"
"467",2006-10-07,"2007","RS","Trindade do Sul",2007-01-03,"R5","Jan",88,-27.522,-52.894,10,2006-09-15,110,17,"South"
"468",2006-10-07,"2007","SC","Abelardo Luz",2007-01-10,"R5","Jan",95,-26.565,-52.328,10,2006-09-15,117,18,"South"
"469",2006-10-07,"2007","SC","Água Doce",2007-02-09,"R5","Feb",125,-26.998,-51.556,10,2006-09-15,147,22,"South"
"470",2006-11-07,"2007","PR","Alto Piquiri",2006-12-30,"R3","Dec",53,-24.028,-53.441,8,2006-09-15,106,15,"South"
"471",2006-11-07,"2007","PR","Araruna",2007-01-02,"Vn","Jan",56,-23.932,-52.496,5,2006-09-15,109,17,"South"
"472",2006-11-07,"2007","PR","Barbosa Ferraz",2007-01-02,"R3","Jan",56,-24.03,-52.012,8,2006-09-15,109,17,"South"
"473",2006-11-07,"2007","PR","Bom Sucesso do Sul",2007-01-19,"R2","Jan",73,-26.076,-52.834,7,2006-09-15,126,19,"South"
"474",2006-11-07,"2007","PR","Braganey",2006-12-06,"Vn","Dec",29,-24.816,-53.122,5,2006-09-15,82,12,"South"
"475",2006-11-07,"2007","PR","Brasilândia do Sul",2007-01-09,"R2","Jan",63,-24.197,-53.525,7,2006-09-15,116,18,"South"
"476",2006-11-07,"2007","PR","Campo Mourão",2007-01-09,"R1","Jan",63,-24.046,-52.383,6,2006-09-15,116,18,"South"
"477",2006-11-07,"2007","PR","Capanema",2007-01-11,"R3","Jan",65,-25.672,-53.809,8,2006-09-15,118,18,"South"
"478",2006-11-07,"2007","PR","Carambeí",2007-01-18,"R1","Jan",72,-24.918,-50.097,6,2006-09-15,125,19,"South"
"479",2006-11-07,"2007","PR","Cascavel",2007-01-17,"R1","Jan",71,-24.956,-53.455,6,2006-09-15,124,19,"South"
"480",2006-11-07,"2007","PR","Castro",2007-01-26,"Vn","Jan",80,-24.791,-50.012,5,2006-09-15,133,20,"South"
"481",2006-11-07,"2007","PR","Cianorte",2007-01-15,"R2","Jan",69,-23.663,-52.605,7,2006-09-15,122,19,"South"
"482",2006-11-07,"2007","PR","Clevelândia",2007-01-12,"Vn","Jan",66,-26.396,-52.471,5,2006-09-15,119,18,"South"
"483",2006-11-07,"2007","PR","Congonhinhas",2006-12-08,"R5","Dec",31,-23.551,-50.554,10,2006-09-15,84,12,"South"
"484",2006-11-07,"2007","PR","Coronel Vivida",2007-02-05,"R3","Feb",90,-25.98,-52.568,8,2006-09-15,143,22,"South"
"485",2006-11-07,"2007","PR","Curiúva",2007-01-29,"R5","Jan",83,-24.033,-50.458,10,2006-09-15,136,21,"South"
"486",2006-11-07,"2007","PR","Dois Vizinhos",2007-01-19,"R1","Jan",73,-25.734,-53.057,6,2006-09-15,126,19,"South"
"487",2006-11-07,"2007","PR","Doutor Camargo",2007-01-10,"R2","Jan",64,-23.556,-52.218,7,2006-09-15,117,18,"South"
"488",2006-11-07,"2007","PR","Faxinal",2007-01-23,"Vn","Jan",77,-24.001,-51.32,5,2006-09-15,130,20,"South"
"489",2006-11-07,"2007","PR","Formosa do Oeste",2006-11-22,"R1","Nov",15,-24.293,-53.313,6,2006-09-15,68,10,"South"
"490",2006-11-07,"2007","PR","Foz do Jordão",2006-11-19,"R5","Nov",12,-25.737,-52.119,10,2006-09-15,65,10,"South"
"491",2006-11-07,"2007","PR","Francisco Alves",2007-01-08,"R3","Jan",62,-24.066,-53.848,8,2006-09-15,115,18,"South"
"492",2006-11-07,"2007","PR","Grandes Rios",2007-01-02,"R3","Jan",56,-24.146,-51.506,8,2006-09-15,109,17,"South"
"493",2006-11-07,"2007","PR","Imbaú",2007-01-04,"R3","Jan",58,-24.445,-50.761,8,2006-09-15,111,17,"South"
"494",2006-11-07,"2007","PR","Ipiranga",2007-01-29,"R3","Jan",83,-25.024,-50.584,8,2006-09-15,136,21,"South"
"495",2006-11-07,"2007","PR","Iretama",2006-12-26,"R1","Dec",49,-24.424,-52.106,6,2006-09-15,102,15,"South"
"496",2006-11-07,"2007","PR","Itaipulândia",2007-01-18,"R4","Jan",72,-25.137,-54.302,9,2006-09-15,125,19,"South"
"497",2006-11-07,"2007","PR","Itapejara do Oeste",2007-02-01,"R2","Feb",86,-25.965,-52.816,7,2006-09-15,139,21,"South"
"498",2006-11-07,"2007","PR","Ivaiporã",2006-12-07,"R1","Dec",30,-24.248,-51.685,6,2006-09-15,83,12,"South"
"499",2006-11-07,"2007","PR","Jaguariaíva",2007-01-15,"R1","Jan",69,-24.251,-49.706,6,2006-09-15,122,19,"South"
"500",2006-11-07,"2007","PR","Londrina",2007-01-27,"R5","Jan",81,-23.31,-51.163,10,2006-09-15,134,20,"South"
"501",2006-11-07,"2007","PR","Luiziana",2007-01-09,"Vn","Jan",63,-24.286,-52.276,5,2006-09-15,116,18,"South"
"502",2006-11-07,"2007","PR","Mangueirinha",2007-01-09,"R1","Jan",63,-25.941,-52.176,6,2006-09-15,116,18,"South"
"503",2006-11-07,"2007","PR","Manoel Ribas",2007-01-04,"R1","Jan",58,-24.516,-51.668,6,2006-09-15,111,17,"South"
"504",2006-11-07,"2007","PR","Marechal Cândido Rondon",2006-11-14,"V3","Nov",7,-24.556,-54.057,4,2006-09-15,60,9,"South"
"505",2006-11-07,"2007","PR","Marilândia do Sul",2007-01-02,"R4","Jan",56,-23.745,-51.308,9,2006-09-15,109,17,"South"
"506",2006-11-07,"2007","PR","Mariluz",2007-01-10,"R3","Jan",64,-24.002,-53.146,8,2006-09-15,117,18,"South"
"507",2006-11-07,"2007","PR","Mariópolis",2007-01-12,"R1","Jan",66,-26.355,-52.559,6,2006-09-15,119,18,"South"
"508",2006-11-07,"2007","PR","Nova Santa Rosa",2007-01-30,"R3","Jan",84,-24.466,-53.953,8,2006-09-15,137,21,"South"
"509",2006-11-07,"2007","PR","Palmeira",2007-01-26,"R1","Jan",80,-25.429,-50.006,6,2006-09-15,133,20,"South"
"510",2006-11-07,"2007","PR","Pato Branco",2007-01-08,"Vn","Jan",62,-26.229,-52.671,5,2006-09-15,115,18,"South"
"511",2006-11-07,"2007","PR","Pinhalão",2006-12-08,"R3","Dec",31,-23.793,-50.056,8,2006-09-15,84,12,"South"
"512",2006-11-07,"2007","PR","Piraí do Sul",2007-01-26,"Vn","Jan",80,-24.526,-49.949,5,2006-09-15,133,20,"South"
"513",2006-11-07,"2007","PR","Pitanga",2007-01-05,"R1","Jan",59,-24.757,-51.761,6,2006-09-15,112,17,"South"
"514",2006-11-07,"2007","PR","Ponta Grossa",2007-01-23,"R4","Jan",77,-25.095,-50.162,9,2006-09-15,130,20,"South"
"515",2006-11-07,"2007","PR","Rancho Alegre do Oeste",2007-01-11,"R1","Jan",65,-24.307,-52.954,6,2006-09-15,118,18,"South"
"516",2006-11-07,"2007","PR","Reserva",2007-01-26,"R2","Jan",80,-24.65,-50.851,7,2006-09-15,133,20,"South"
"517",2006-11-07,"2007","PR","São João do Ivaí",2007-01-26,"R2","Jan",80,-23.98,-51.818,7,2006-09-15,133,20,"South"
"518",2006-11-07,"2007","PR","São Jorge do Ivaí",2007-01-03,"R2","Jan",57,-23.433,-52.293,7,2006-09-15,110,17,"South"
"519",2006-11-07,"2007","PR","São Jorge do Oeste",2006-12-19,"R2","Dec",42,-25.706,-52.918,7,2006-09-15,95,14,"South"
"520",2006-11-07,"2007","PR","Sarandi",2007-01-11,"R4","Jan",65,-23.444,-51.874,9,2006-09-15,118,18,"South"
"521",2006-11-07,"2007","PR","Saudade do Iguaçu",2007-01-25,"R3","Jan",79,-25.694,-52.619,8,2006-09-15,132,20,"South"
"522",2006-11-07,"2007","PR","Sengés",2007-01-18,"R1","Jan",72,-24.113,-49.464,6,2006-09-15,125,19,"South"
"523",2006-11-07,"2007","PR","Teixeira Soares",2007-01-26,"R5","Jan",80,-25.368,-50.461,10,2006-09-15,133,20,"South"
"524",2006-11-07,"2007","PR","Terra Roxa",2007-01-08,"R3","Jan",62,-24.157,-54.097,8,2006-09-15,115,18,"South"
"525",2006-11-07,"2007","PR","Tibagi",2007-01-18,"R3","Jan",72,-24.509,-50.414,8,2006-09-15,125,19,"South"
"526",2006-11-07,"2007","PR","Tomazina",2007-01-22,"R2","Jan",76,-23.778,-49.95,7,2006-09-15,129,20,"South"
"527",2006-11-07,"2007","PR","Tuneiras do Oeste",2007-01-23,"R2","Jan",77,-23.871,-52.876,7,2006-09-15,130,20,"South"
"528",2006-11-07,"2007","PR","Tupãssi",2007-01-25,"R2","Jan",79,-24.588,-53.512,7,2006-09-15,132,20,"South"
"529",2006-11-07,"2007","PR","Umuarama",2007-01-22,"R4","Jan",76,-23.766,-53.325,9,2006-09-15,129,20,"South"
"530",2006-11-07,"2007","PR","Ventania",2007-01-22,"R3","Jan",76,-24.246,-50.243,8,2006-09-15,129,20,"South"
"531",2006-11-07,"2007","PR","Verê",2007-01-30,"R3","Jan",84,-25.881,-52.908,8,2006-09-15,137,21,"South"
"532",2006-11-07,"2007","PR","Vitorino",2007-01-01,"R3","Jan",55,-26.277,-52.784,8,2006-09-15,108,17,"South"
"533",2006-11-07,"2007","PR","Wenceslau Braz",2007-01-26,"Vn","Jan",80,-23.874,-49.803,5,2006-09-15,133,20,"South"
"534",2006-11-07,"2007","RS","Alegrete",2007-03-02,"R5","Mar",115,-29.783,-55.792,10,2006-09-15,168,25,"South"
"535",2006-11-07,"2007","RS","Augusto Pestana",2007-02-12,"R5","Feb",97,-28.517,-53.992,10,2006-09-15,150,23,"South"
"536",2006-11-07,"2007","RS","Boa Vista das Missões",2007-02-07,"R5","Feb",92,-27.663,-53.314,10,2006-09-15,145,22,"South"
"537",2006-11-07,"2007","RS","Boa Vista do Cadeado",2007-02-14,"R4","Feb",99,-28.607,-53.815,9,2006-09-15,152,23,"South"
"538",2006-11-07,"2007","RS","Bozano",2007-03-13,"R5","Mar",126,-28.368,-53.771,10,2006-09-15,179,27,"South"
"539",2006-11-07,"2007","RS","Carazinho",2007-01-11,"R6","Jan",65,-28.284,-52.786,11,2006-09-15,118,18,"South"
"540",2006-11-07,"2007","RS","Catuípe",2007-03-01,"R5","Mar",114,-28.25,-54.012,10,2006-09-15,167,25,"South"
"541",2006-11-07,"2007","RS","Centenário",2007-03-16,"R5","Mar",129,-27.761,-51.999,10,2006-09-15,182,27,"South"
"542",2006-11-07,"2007","RS","Chapada",2007-02-01,"R3","Feb",86,-28.055,-53.068,8,2006-09-15,139,21,"South"
"543",2006-11-07,"2007","RS","Chiapetta",2007-03-08,"R3","Mar",121,-27.923,-53.941,8,2006-09-15,174,26,"South"
"544",2006-11-07,"2007","RS","Condor",2007-02-09,"R5","Feb",94,-28.208,-53.487,10,2006-09-15,147,22,"South"
"545",2006-11-07,"2007","RS","Coronel Bicaco",2007-02-16,"R4","Feb",101,-27.716,-53.701,9,2006-09-15,154,23,"South"
"546",2006-11-07,"2007","RS","Coxilha",2007-02-27,"R4","Feb",112,-28.127,-52.296,9,2006-09-15,165,25,"South"
"547",2006-11-07,"2007","RS","Cruz Alta",2007-02-07,"R3","Feb",92,-28.639,-53.606,8,2006-09-15,145,22,"South"
"548",2006-11-07,"2007","RS","Doutor Maurício Cardoso",2007-01-10,"R1","Jan",64,-27.506,-54.361,6,2006-09-15,117,18,"South"
"549",2006-11-07,"2007","RS","Estação",2007-01-31,"R3","Jan",85,-27.911,-52.26,8,2006-09-15,138,21,"South"
"550",2006-11-07,"2007","RS","Eugênio de Castro",2007-02-14,"R4","Feb",99,-28.525,-54.149,9,2006-09-15,152,23,"South"
"551",2006-11-07,"2007","RS","Floriano Peixoto",2007-01-18,"R5","Jan",72,-27.861,-52.084,10,2006-09-15,125,19,"South"
"552",2006-11-07,"2007","RS","Fortaleza dos Valos",2007-03-08,"R4","Mar",121,-28.797,-53.223,9,2006-09-15,174,26,"South"
"553",2006-11-07,"2007","RS","Getúlio Vargas",2007-01-18,"R3","Jan",72,-27.89,-52.228,8,2006-09-15,125,19,"South"
"554",2006-11-07,"2007","RS","Ijuí",2007-02-21,"R3","Feb",106,-28.388,-53.915,8,2006-09-15,159,24,"South"
"555",2006-11-07,"2007","RS","Independência",2007-01-18,"R1","Jan",72,-27.833,-54.188,6,2006-09-15,125,19,"South"
"556",2006-11-07,"2007","RS","Ivorá",2007-02-23,"R5","Feb",108,-29.52,-53.581,10,2006-09-15,161,24,"South"
"557",2006-11-07,"2007","RS","Jacutinga",2007-02-13,"R4","Feb",98,-27.729,-52.535,9,2006-09-15,151,23,"South"
"558",2006-11-07,"2007","RS","Jari",2007-03-06,"R5","Mar",119,-29.291,-54.224,10,2006-09-15,172,26,"South"
"559",2006-11-07,"2007","RS","Joia",2007-02-02,"R1","Feb",87,-28.647,-54.122,6,2006-09-15,140,21,"South"
"560",2006-11-07,"2007","RS","Lagoa Bonita do Sul",2007-02-27,"R5","Feb",112,-29.489,-53.014,10,2006-09-15,165,25,"South"
"561",2006-11-07,"2007","RS","Lagoa Vermelha",2007-02-05,"R3","Feb",90,-28.209,-51.526,8,2006-09-15,143,22,"South"
"562",2006-11-07,"2007","RS","Mato Castelhano",2007-03-02,"R5","Mar",115,-28.278,-52.192,10,2006-09-15,168,25,"South"
"563",2006-11-07,"2007","RS","Muitos Capões",2007-02-26,"R5","Feb",111,-28.314,-51.182,10,2006-09-15,164,25,"South"
"564",2006-11-07,"2007","RS","Não-Me-Toque",2007-02-14,"R5","Feb",99,-28.459,-52.821,10,2006-09-15,152,23,"South"
"565",2006-11-07,"2007","RS","Nova Ramada",2007-03-01,"R5","Mar",114,-28.064,-53.697,10,2006-09-15,167,25,"South"
"566",2006-11-07,"2007","RS","Novo Machado",2006-12-10,"R5","Dec",33,-27.574,-54.505,10,2006-09-15,86,13,"South"
"567",2006-11-07,"2007","RS","Palmeira das Missões",2007-02-09,"R4","Feb",94,-27.899,-53.314,9,2006-09-15,147,22,"South"
"568",2006-11-07,"2007","RS","Pejuçara",2007-03-02,"R4","Mar",115,-28.423,-53.656,9,2006-09-15,168,25,"South"
"569",2006-11-07,"2007","RS","Pinhal Grande",2007-02-05,"R5","Feb",90,-29.346,-53.307,10,2006-09-15,143,22,"South"
"570",2006-11-07,"2007","RS","Quatro Irmãos",2007-01-05,"Vn","Jan",59,-27.821,-52.439,5,2006-09-15,112,17,"South"
"571",2006-11-07,"2007","RS","Rolador",2007-03-05,"R5","Mar",118,-28.258,-54.818,10,2006-09-15,171,26,"South"
"572",2006-11-07,"2007","RS","Ronda Alta",2007-01-22,"R2","Jan",76,-27.767,-52.802,7,2006-09-15,129,20,"South"
"573",2006-11-07,"2007","RS","Salto do Jacuí",2007-03-12,"R5","Mar",125,-29.088,-53.213,10,2006-09-15,178,27,"South"
"574",2006-11-07,"2007","RS","Santa Bárbara do Sul",2007-03-08,"R3","Mar",121,-28.358,-53.247,8,2006-09-15,174,26,"South"
"575",2006-11-07,"2007","RS","Santa Maria",2007-03-01,"R3","Mar",114,-29.684,-53.807,8,2006-09-15,167,25,"South"
"576",2006-11-07,"2007","RS","Santa Rosa",2007-01-18,"R2","Jan",72,-27.871,-54.481,7,2006-09-15,125,19,"South"
"577",2006-11-07,"2007","RS","Santiago",2006-12-18,"Vn","Dec",41,-29.192,-54.867,5,2006-09-15,94,14,"South"
"578",2006-11-07,"2007","RS","Santo Ângelo",2007-03-05,"R5","Mar",118,-28.299,-54.263,10,2006-09-15,171,26,"South"
"579",2006-11-07,"2007","RS","Santo Augusto",2007-01-04,"R4","Jan",58,-27.851,-53.777,9,2006-09-15,111,17,"South"
"580",2006-11-07,"2007","RS","Santo Cristo",2007-02-16,"R4","Feb",101,-27.824,-54.663,9,2006-09-15,154,23,"South"
"581",2006-11-07,"2007","RS","Santo Expedito do Sul",2007-02-12,"R5","Feb",97,-27.908,-51.645,10,2006-09-15,150,23,"South"
"582",2006-11-07,"2007","RS","São Borja",2006-12-22,"V3","Dec",45,-28.661,-56.004,4,2006-09-15,98,14,"South"
"583",2006-11-07,"2007","RS","São José das Missões",2007-01-08,"R1","Jan",62,-27.78,-53.122,6,2006-09-15,115,18,"South"
"584",2006-11-07,"2007","RS","São Martinho da Serra",2007-02-09,"R5","Feb",94,-29.538,-53.855,10,2006-09-15,147,22,"South"
"585",2006-11-07,"2007","RS","Sarandi",2007-03-02,"R5","Mar",115,-27.944,-52.923,10,2006-09-15,168,25,"South"
"586",2006-11-07,"2007","RS","Sertão",2007-02-23,"R4","Feb",108,-27.98,-52.26,9,2006-09-15,161,24,"South"
"587",2006-11-07,"2007","RS","Tapera",2007-03-05,"R5","Mar",118,-28.626,-52.87,10,2006-09-15,171,26,"South"
"588",2006-11-07,"2007","RS","Tenente Portela",2007-01-16,"R4","Jan",70,-27.371,-53.758,9,2006-09-15,123,19,"South"
"589",2006-11-07,"2007","RS","Tupanciretã",2007-03-01,"R2","Mar",114,-29.081,-53.836,7,2006-09-15,167,25,"South"
"590",2006-11-07,"2007","RS","Vespasiano Correa",2007-02-06,"R5","Feb",91,-29.068,-51.859,10,2006-09-15,144,22,"South"
"591",2006-11-07,"2007","SC","Campos Novos",2007-02-26,"R4","Feb",111,-27.402,-51.225,9,2006-09-15,164,25,"South"
"592",2006-11-07,"2007","SC","Galvão",2007-01-19,"R2","Jan",73,-26.455,-52.686,7,2006-09-15,126,19,"South"
"593",2006-11-07,"2007","SC","São Domingos",2007-01-09,"R2","Jan",63,-26.558,-52.532,7,2006-09-15,116,18,"South"
"594",2006-12-07,"2007","PR","Arapoti",2007-01-18,"Vn","Jan",42,-24.158,-49.827,5,2006-09-15,125,19,"South"
"595",2006-12-07,"2007","RS","Ajuricaba",2007-02-21,"R4","Feb",76,-28.239,-53.771,9,2006-09-15,159,24,"South"
"596",2006-12-07,"2007","RS","Barracão",2007-02-05,"R5","Feb",60,-27.672,-51.461,10,2006-09-15,143,22,"South"
"597",2006-12-07,"2007","RS","Boa Vista do Incra",2007-03-13,"R5","Mar",96,-28.819,-53.387,10,2006-09-15,179,27,"South"
"598",2006-12-07,"2007","RS","Ibirubá",2007-03-06,"R2","Mar",89,-28.628,-53.09,7,2006-09-15,172,26,"South"
"599",2006-12-07,"2007","RS","Itaara",2007-03-05,"R1","Mar",88,-29.61,-53.765,6,2006-09-15,171,26,"South"
"600",2006-12-07,"2007","RS","Jaguari",2007-03-04,"R5","Mar",87,-29.497,-54.69,10,2006-09-15,170,25,"South"
"601",2006-12-07,"2007","RS","Júlio de Castilhos",2007-03-07,"R2","Mar",90,-29.227,-53.682,7,2006-09-15,173,26,"South"
"602",2006-12-07,"2007","RS","Manoel Viana",2007-03-14,"R5","Mar",97,-29.589,-55.483,10,2006-09-15,180,27,"South"
"603",2006-12-07,"2007","RS","Vacaria",2007-02-14,"R2","Feb",69,-28.512,-50.934,7,2006-09-15,152,23,"South"
"604",2006-12-07,"2007","RS","Vila Lângaro",2007-03-20,"R5","Mar",103,-28.107,-52.144,10,2006-09-15,186,28,"South"
"605",2006-12-07,"2007","SC","Zortéa",2007-03-03,"R5","Mar",86,-27.451,-51.555,10,2006-09-15,169,25,"South"
"606",2007-10-07,"2008","PR","Arapongas",2007-12-17,"R4","Dec",71,-23.419,-51.424,9,2007-09-15,93,14,"South"
"607",2007-10-07,"2008","PR","Arapuã",2008-01-23,"R4","Jan",108,-24.316,-51.787,9,2007-09-15,130,20,"South"
"608",2007-10-07,"2008","PR","Araruna",2008-01-11,"R5","Jan",96,-23.932,-52.496,10,2007-09-15,118,18,"South"
"609",2007-10-07,"2008","PR","Ariranha do Ivaí",2008-02-21,"R5","Feb",137,-24.386,-51.585,10,2007-09-15,159,24,"South"
"610",2007-10-07,"2008","PR","Assis Chateaubriand",2007-12-27,"R3","Dec",81,-24.42,-53.521,8,2007-09-15,103,15,"South"
"611",2007-10-07,"2008","PR","Barbosa Ferraz",2008-01-11,"R2","Jan",96,-24.03,-52.012,7,2007-09-15,118,18,"South"
"612",2007-10-07,"2008","PR","Boa Esperança",2008-01-15,"R5","Jan",100,-24.242,-52.789,10,2007-09-15,122,19,"South"
"613",2007-10-07,"2008","PR","Boa Ventura de São Roque",2008-02-15,"R3","Feb",131,-24.869,-51.628,8,2007-09-15,153,23,"South"
"614",2007-10-07,"2008","PR","Borrazópolis",2008-01-17,"R4","Jan",102,-23.941,-51.588,9,2007-09-15,124,19,"South"
"615",2007-10-07,"2008","PR","Brasilândia do Sul",2008-01-11,"R4","Jan",96,-24.197,-53.525,9,2007-09-15,118,18,"South"
"616",2007-10-07,"2008","PR","Califórnia",2008-01-23,"R6","Jan",108,-23.65,-51.355,11,2007-09-15,130,20,"South"
"617",2007-10-07,"2008","PR","Campina da Lagoa",2007-12-21,"R2","Dec",75,-24.592,-52.799,7,2007-09-15,97,14,"South"
"618",2007-10-07,"2008","PR","Campina do Simão",2008-02-07,"R5","Feb",123,-25.079,-51.827,10,2007-09-15,145,22,"South"
"619",2007-10-07,"2008","PR","Campo Bonito",2008-01-17,"R6","Jan",102,-25.031,-52.993,11,2007-09-15,124,19,"South"
"620",2007-10-07,"2008","PR","Campo do Tenente",2008-03-18,"R7","Mar",163,-25.978,-49.683,12,2007-09-15,185,28,"South"
"621",2007-10-07,"2008","PR","Cândido de Abreu",2008-01-23,"R5","Jan",108,-24.567,-51.333,10,2007-09-15,130,20,"South"
"622",2007-10-07,"2008","PR","Cantagalo",2008-02-28,"R5","Feb",144,-25.374,-52.126,10,2007-09-15,166,25,"South"
"623",2007-10-07,"2008","PR","Cascavel",2007-12-28,"Vn","Dec",82,-24.956,-53.455,5,2007-09-15,104,15,"South"
"624",2007-10-07,"2008","PR","Castro",2008-02-11,"R3","Feb",127,-24.791,-50.012,8,2007-09-15,149,22,"South"
"625",2007-10-07,"2008","PR","Catanduvas",2008-02-15,"R3","Feb",131,-25.203,-53.157,8,2007-09-15,153,23,"South"
"626",2007-10-07,"2008","PR","Céu Azul",2008-01-29,"R4","Jan",114,-25.147,-53.849,9,2007-09-15,136,21,"South"
"627",2007-10-07,"2008","PR","Chopinzinho",2008-02-14,"R4","Feb",130,-25.856,-52.523,9,2007-09-15,152,23,"South"
"628",2007-10-07,"2008","PR","Clevelândia",2008-01-11,"R5","Jan",96,-26.396,-52.471,10,2007-09-15,118,18,"South"
"629",2007-10-07,"2008","PR","Cruzmaltina",2008-02-15,"R5","Feb",131,-24.013,-51.459,10,2007-09-15,153,23,"South"
"630",2007-10-07,"2008","PR","Engenheiro Beltrão",2007-12-19,"R2","Dec",73,-23.797,-52.269,7,2007-09-15,95,14,"South"
"631",2007-10-07,"2008","PR","Faxinal",2008-02-12,"R5","Feb",128,-24.001,-51.32,10,2007-09-15,150,23,"South"
"632",2007-10-07,"2008","PR","Fênix",2008-01-23,"R6","Jan",108,-23.916,-51.979,11,2007-09-15,130,20,"South"
"633",2007-10-07,"2008","PR","Fernandes Pinheiro",2008-02-13,"R7","Feb",129,-25.413,-50.548,12,2007-09-15,151,23,"South"
"634",2007-10-07,"2008","PR","Floresta",2007-12-21,"R1","Dec",75,-23.599,-52.081,6,2007-09-15,97,14,"South"
"635",2007-10-07,"2008","PR","Florestópolis",2008-02-09,"R5","Feb",125,-22.863,-51.387,10,2007-09-15,147,22,"South"
"636",2007-10-07,"2008","PR","Foz do Jordão",2008-01-11,"R5","Jan",96,-25.737,-52.119,10,2007-09-15,118,18,"South"
"637",2007-10-07,"2008","PR","Francisco Alves",2007-12-27,"R5","Dec",81,-24.066,-53.848,10,2007-09-15,103,15,"South"
"638",2007-10-07,"2008","PR","Francisco Beltrão",2008-02-11,"R5","Feb",127,-26.081,-53.055,10,2007-09-15,149,22,"South"
"639",2007-10-07,"2008","PR","Goioerê",2008-01-10,"R3","Jan",95,-24.185,-53.028,8,2007-09-15,117,18,"South"
"640",2007-10-07,"2008","PR","Guaíra",2008-01-07,"R4","Jan",92,-24.08,-54.256,9,2007-09-15,114,17,"South"
"641",2007-10-07,"2008","PR","Guarapuava",2008-02-25,"Vn","Feb",141,-25.395,-51.458,5,2007-09-15,163,24,"South"
"642",2007-10-07,"2008","PR","Honório Serpa",2008-03-13,"R5","Mar",158,-26.141,-52.387,10,2007-09-15,180,27,"South"
"643",2007-10-07,"2008","PR","Ibiporã",2008-01-14,"R4","Jan",99,-23.269,-51.048,9,2007-09-15,121,18,"South"
"644",2007-10-07,"2008","PR","Irati",2008-01-25,"R1","Jan",110,-25.467,-50.651,6,2007-09-15,132,20,"South"
"645",2007-10-07,"2008","PR","Iretama",2008-01-24,"R4","Jan",109,-24.424,-52.106,9,2007-09-15,131,20,"South"
"646",2007-10-07,"2008","PR","Ivaiporã",2008-01-11,"R2","Jan",96,-24.248,-51.685,7,2007-09-15,118,18,"South"
"647",2007-10-07,"2008","PR","Jaguariaíva",2008-02-29,"R5","Feb",145,-24.251,-49.706,10,2007-09-15,167,25,"South"
"648",2007-10-07,"2008","PR","Janiópolis",2008-02-12,"R5","Feb",128,-24.142,-52.782,10,2007-09-15,150,23,"South"
"649",2007-10-07,"2008","PR","Jardim Alegre",2008-01-22,"R3","Jan",107,-24.179,-51.692,8,2007-09-15,129,20,"South"
"650",2007-10-07,"2008","PR","Juranda",2008-01-16,"R4","Jan",101,-24.42,-52.843,9,2007-09-15,123,19,"South"
"651",2007-10-07,"2008","PR","Jussara",2008-01-14,"R4","Jan",99,-23.621,-52.469,9,2007-09-15,121,18,"South"
"652",2007-10-07,"2008","PR","Laranjal",2008-01-29,"R5","Jan",114,-24.887,-52.469,10,2007-09-15,136,21,"South"
"653",2007-10-07,"2008","PR","Lindoeste",2008-01-23,"R4","Jan",108,-25.26,-53.576,9,2007-09-15,130,20,"South"
"654",2007-10-07,"2008","PR","Londrina",2007-12-20,"R3","Dec",74,-23.31,-51.163,8,2007-09-15,96,14,"South"
"655",2007-10-07,"2008","PR","Mamborê",2007-12-20,"R1","Dec",74,-24.319,-52.53,6,2007-09-15,96,14,"South"
"656",2007-10-07,"2008","PR","Mandaguari",2008-03-17,"R7","Mar",162,-23.548,-51.671,12,2007-09-15,184,27,"South"
"657",2007-10-07,"2008","PR","Mangueirinha",2008-01-16,"Vn","Jan",101,-25.941,-52.176,5,2007-09-15,123,19,"South"
"658",2007-10-07,"2008","PR","Marilândia do Sul",2008-02-01,"R3","Feb",117,-23.745,-51.308,8,2007-09-15,139,21,"South"
"659",2007-10-07,"2008","PR","Mariluz",2008-01-17,"R3","Jan",102,-24.002,-53.146,8,2007-09-15,124,19,"South"
"660",2007-10-07,"2008","PR","Maringá",2008-01-27,"R5","Jan",112,-23.425,-51.939,10,2007-09-15,134,20,"South"
"661",2007-10-07,"2008","PR","Maripá",2008-01-11,"R5","Jan",96,-24.418,-53.83,10,2007-09-15,118,18,"South"
"662",2007-10-07,"2008","PR","Mato Rico",2008-01-29,"R1","Jan",114,-24.705,-52.146,6,2007-09-15,136,21,"South"
"663",2007-10-07,"2008","PR","Mauá da Serra",2008-02-08,"R5","Feb",124,-23.901,-51.229,10,2007-09-15,146,22,"South"
"664",2007-10-07,"2008","PR","Medianeira",2008-01-14,"R5","Jan",99,-25.295,-54.094,10,2007-09-15,121,18,"South"
"665",2007-10-07,"2008","PR","Moreira Sales",2008-01-10,"R3","Jan",95,-24.062,-53.007,8,2007-09-15,117,18,"South"
"666",2007-10-07,"2008","PR","Nova Cantu",2008-01-29,"R4","Jan",114,-24.673,-52.569,9,2007-09-15,136,21,"South"
"667",2007-10-07,"2008","PR","Nova Tebas",2008-01-31,"R5","Jan",116,-24.438,-51.945,10,2007-09-15,138,21,"South"
"668",2007-10-07,"2008","PR","Ortigueira",2008-01-11,"R3","Jan",96,-24.208,-50.949,8,2007-09-15,118,18,"South"
"669",2007-10-07,"2008","PR","Palmas",2008-03-03,"R5","Mar",148,-26.484,-51.991,10,2007-09-15,170,25,"South"
"670",2007-10-07,"2008","PR","Palmital",2008-01-04,"R3","Jan",89,-24.893,-52.203,8,2007-09-15,111,17,"South"
"671",2007-10-07,"2008","PR","Palotina",2008-01-18,"R5","Jan",103,-24.284,-53.84,10,2007-09-15,125,19,"South"
"672",2007-10-07,"2008","PR","Pato Branco",2008-02-07,"R5","Feb",123,-26.229,-52.671,10,2007-09-15,145,22,"South"
"673",2007-10-07,"2008","PR","Peabiru",2008-01-25,"R3","Jan",110,-23.913,-52.343,8,2007-09-15,132,20,"South"
"674",2007-10-07,"2008","PR","Perobal",2008-02-29,"R6","Feb",145,-23.896,-53.41,11,2007-09-15,167,25,"South"
"675",2007-10-07,"2008","PR","Pinhão",2008-02-14,"R5","Feb",130,-25.696,-51.66,10,2007-09-15,152,23,"South"
"676",2007-10-07,"2008","PR","Primeiro de Maio",2007-12-19,"R1","Dec",73,-22.851,-51.028,6,2007-09-15,95,14,"South"
"677",2007-10-07,"2008","PR","Quatro Pontes",2008-01-30,"R5","Jan",115,-24.575,-53.977,10,2007-09-15,137,21,"South"
"678",2007-10-07,"2008","PR","Quedas do Iguaçu",2007-12-06,"R1","Dec",60,-25.45,-52.908,6,2007-09-15,82,12,"South"
"679",2007-10-07,"2008","PR","Rebouças",2008-02-18,"R5","Feb",134,-25.621,-50.693,10,2007-09-15,156,23,"South"
"680",2007-10-07,"2008","PR","Reserva",2008-03-27,"R5","Mar",172,-24.65,-50.851,10,2007-09-15,194,29,"South"
"681",2007-10-07,"2008","PR","Reserva do Iguaçu",2008-03-03,"R5","Mar",148,-25.839,-52.028,10,2007-09-15,170,25,"South"
"682",2007-10-07,"2008","PR","Rio Bom",2008-01-23,"R2","Jan",108,-23.762,-51.411,7,2007-09-15,130,20,"South"
"683",2007-10-07,"2008","PR","Rolândia",2008-01-08,"R2","Jan",93,-23.31,-51.369,7,2007-09-15,115,18,"South"
"684",2007-10-07,"2008","PR","Roncador",2008-01-15,"R1","Jan",100,-24.603,-52.275,6,2007-09-15,122,19,"South"
"685",2007-10-07,"2008","PR","Santa Helena",2008-01-14,"R5","Jan",99,-24.86,-54.333,10,2007-09-15,121,18,"South"
"686",2007-10-07,"2008","PR","Santa Izabel do Oeste",2007-12-28,"R2","Dec",82,-25.821,-53.484,7,2007-09-15,104,15,"South"
"687",2007-10-07,"2008","PR","Santa Tereza do Oeste",2008-02-12,"R5","Feb",128,-25.052,-53.633,10,2007-09-15,150,23,"South"
"688",2007-10-07,"2008","PR","São João do Ivaí",2008-01-11,"R3","Jan",96,-23.98,-51.818,8,2007-09-15,118,18,"South"
"689",2007-10-07,"2008","PR","São Jorge do Ivaí",2008-01-29,"R3","Jan",114,-23.433,-52.293,8,2007-09-15,136,21,"South"
"690",2007-10-07,"2008","PR","São Miguel do Iguaçu",2008-01-25,"R5","Jan",110,-25.348,-54.238,10,2007-09-15,132,20,"South"
"691",2007-10-07,"2008","PR","São Pedro do Iguaçu",2008-01-14,"R4","Jan",99,-24.936,-53.855,9,2007-09-15,121,18,"South"
"692",2007-10-07,"2008","PR","Sarandi",2008-01-03,"R2","Jan",88,-23.444,-51.874,7,2007-09-15,110,17,"South"
"693",2007-10-07,"2008","PR","Serranópolis do Iguaçu",2008-01-14,"R5","Jan",99,-25.38,-54.052,10,2007-09-15,121,18,"South"
"694",2007-10-07,"2008","PR","Tamarana",2008-02-12,"R3","Feb",128,-23.723,-51.097,8,2007-09-15,150,23,"South"
"695",2007-10-07,"2008","PR","Terra Boa",2008-01-14,"R3","Jan",99,-23.768,-52.444,8,2007-09-15,121,18,"South"
"696",2007-10-07,"2008","PR","Tibagi",2008-01-11,"R3","Jan",96,-24.509,-50.414,8,2007-09-15,118,18,"South"
"697",2007-10-07,"2008","PR","Toledo",2008-01-02,"R2","Jan",87,-24.714,-53.743,7,2007-09-15,109,17,"South"
"698",2007-10-07,"2008","PR","Tuneiras do Oeste",2007-12-19,"R2","Dec",73,-23.871,-52.876,7,2007-09-15,95,14,"South"
"699",2007-10-07,"2008","PR","Tupãssi",2008-02-15,"R5","Feb",131,-24.588,-53.512,10,2007-09-15,153,23,"South"
"700",2007-10-07,"2008","PR","Ubiratã",2008-02-07,"R5","Feb",123,-24.545,-52.988,10,2007-09-15,145,22,"South"
"701",2007-10-07,"2008","PR","Vera Cruz do Oeste",2008-01-16,"R5","Jan",101,-25.058,-53.877,10,2007-09-15,123,19,"South"
"702",2007-10-07,"2008","RS","Arroio Grande",2008-02-25,"R3","Feb",141,-32.238,-53.087,8,2007-09-15,163,24,"South"
"703",2007-10-07,"2008","RS","Bossoroca",2008-01-25,"R3","Jan",110,-28.73,-54.9,8,2007-09-15,132,20,"South"
"704",2007-10-07,"2008","RS","Capão Bonito do Sul",2008-02-28,"R4","Feb",144,-28.128,-51.395,9,2007-09-15,166,25,"South"
"705",2007-10-07,"2008","RS","Capão do Leão",2008-02-25,"R1","Feb",141,-31.763,-52.484,6,2007-09-15,163,24,"South"
"706",2007-10-07,"2008","RS","Coronel Bicaco",2008-01-11,"R5","Jan",96,-27.716,-53.701,10,2007-09-15,118,18,"South"
"707",2007-10-07,"2008","RS","Iraí",2008-01-11,"Vn","Jan",96,-27.194,-53.251,5,2007-09-15,118,18,"South"
"708",2007-10-07,"2008","RS","Jari",2008-01-21,"Vn","Jan",106,-29.291,-54.224,5,2007-09-15,128,19,"South"
"709",2007-10-07,"2008","RS","Lajeado",2008-02-12,"R5","Feb",128,-29.467,-51.961,10,2007-09-15,150,23,"South"
"710",2007-10-07,"2008","RS","Marau",2008-02-22,"R5","Feb",138,-28.449,-52.2,10,2007-09-15,160,24,"South"
"711",2007-10-07,"2008","RS","Nova Ramada",2008-02-22,"R5","Feb",138,-28.064,-53.697,10,2007-09-15,160,24,"South"
"712",2007-10-07,"2008","RS","Rio Pardo",2008-03-04,"R6","Mar",149,-29.99,-52.378,11,2007-09-15,171,26,"South"
"713",2007-10-07,"2008","RS","Sananduva",2008-02-07,"R3","Feb",123,-27.95,-51.807,8,2007-09-15,145,22,"South"
"714",2007-10-07,"2008","RS","Santo Augusto",2007-12-27,"R2","Dec",81,-27.851,-53.777,7,2007-09-15,103,15,"South"
"715",2007-10-07,"2008","RS","São Luiz Gonzaga",2008-01-30,"R3","Jan",115,-28.408,-54.961,8,2007-09-15,137,21,"South"
"716",2007-10-07,"2008","RS","Segredo",2008-03-03,"R5","Mar",148,-29.269,-53.012,10,2007-09-15,170,25,"South"
"717",2007-10-07,"2008","RS","Tenente Portela",2008-01-28,"R3","Jan",113,-27.371,-53.758,8,2007-09-15,135,20,"South"
"718",2007-10-07,"2008","RS","Vitória das Missões",2008-02-05,"R3","Feb",121,-28.351,-54.496,8,2007-09-15,143,22,"South"
"719",2007-10-07,"2008","SC","Abelardo Luz",2008-02-26,"Vn","Feb",142,-26.565,-52.328,5,2007-09-15,164,25,"South"
"720",2007-10-07,"2008","SC","Bom Jesus",2008-02-25,"R5","Feb",141,-26.734,-52.394,10,2007-09-15,163,24,"South"
"721",2007-10-07,"2008","SC","Ipuaçu",2008-02-25,"R4","Feb",141,-26.631,-52.455,9,2007-09-15,163,24,"South"
"722",2007-10-07,"2008","SC","São Domingos",2008-02-18,"R5","Feb",134,-26.558,-52.532,10,2007-09-15,156,23,"South"
"723",2007-10-07,"2008","SC","Xanxerê",2008-01-29,"R5","Jan",114,-26.877,-52.404,10,2007-09-15,136,21,"South"
"724",2007-11-07,"2008","PR","Alto Piquiri",2008-02-13,"R5","Feb",98,-24.028,-53.441,10,2007-09-15,151,23,"South"
"725",2007-11-07,"2008","PR","Astorga",2008-02-25,"R5","Feb",110,-23.233,-51.666,10,2007-09-15,163,24,"South"
"726",2007-11-07,"2008","PR","Campo Mourão",2008-01-24,"R1","Jan",78,-24.046,-52.383,6,2007-09-15,131,20,"South"
"727",2007-11-07,"2008","PR","Cianorte",2008-01-22,"R2","Jan",76,-23.663,-52.605,7,2007-09-15,129,20,"South"
"728",2007-11-07,"2008","PR","Coronel Vivida",2008-02-08,"R5","Feb",93,-25.98,-52.568,10,2007-09-15,146,22,"South"
"729",2007-11-07,"2008","PR","Doutor Camargo",2008-01-30,"R5","Jan",84,-23.556,-52.218,10,2007-09-15,137,21,"South"
"730",2007-11-07,"2008","PR","Farol",2008-01-22,"R2","Jan",76,-24.1,-52.623,7,2007-09-15,129,20,"South"
"731",2007-11-07,"2008","PR","Goioxim",2008-02-01,"R5","Feb",86,-25.195,-51.993,10,2007-09-15,139,21,"South"
"732",2007-11-07,"2008","PR","Lidianópolis",2008-01-15,"R4","Jan",69,-24.109,-51.653,9,2007-09-15,122,19,"South"
"733",2007-11-07,"2008","PR","Manoel Ribas",2008-01-10,"R1","Jan",64,-24.516,-51.668,6,2007-09-15,117,18,"South"
"734",2007-11-07,"2008","PR","Ourizona",2008-01-23,"R5","Jan",77,-23.405,-52.199,10,2007-09-15,130,20,"South"
"735",2007-11-07,"2008","PR","Palmeira",2008-02-25,"R5","Feb",110,-25.429,-50.006,10,2007-09-15,163,24,"South"
"736",2007-11-07,"2008","PR","Paula Freitas",2008-02-15,"R5","Feb",100,-26.208,-50.938,10,2007-09-15,153,23,"South"
"737",2007-11-07,"2008","PR","Pitanga",2008-01-24,"V3","Jan",78,-24.757,-51.761,4,2007-09-15,131,20,"South"
"738",2007-11-07,"2008","PR","Quinta do Sol",2008-02-11,"R5","Feb",96,-23.852,-52.13,10,2007-09-15,149,22,"South"
"739",2007-11-07,"2008","PR","Santa Maria do Oeste",2008-01-24,"R2","Jan",78,-24.939,-51.863,7,2007-09-15,131,20,"South"
"740",2007-11-07,"2008","PR","Três Barras do Paraná",2008-01-08,"R2","Jan",62,-25.419,-53.181,7,2007-09-15,115,18,"South"
"741",2007-11-07,"2008","PR","Turvo",2008-02-01,"Vn","Feb",86,-25.043,-51.53,5,2007-09-15,139,21,"South"
"742",2007-11-07,"2008","PR","Virmond",2008-02-13,"R4","Feb",98,-25.381,-52.199,9,2007-09-15,151,23,"South"
"743",2007-11-07,"2008","RS","Ajuricaba",2008-02-18,"R4","Feb",103,-28.239,-53.771,9,2007-09-15,156,23,"South"
"744",2007-11-07,"2008","RS","Augusto Pestana",2008-02-22,"R3","Feb",107,-28.517,-53.992,8,2007-09-15,160,24,"South"
"745",2007-11-07,"2008","RS","Boa Vista do Cadeado",2008-02-22,"R5","Feb",107,-28.607,-53.815,10,2007-09-15,160,24,"South"
"746",2007-11-07,"2008","RS","Caiçara",2008-03-10,"R5","Mar",124,-27.274,-53.432,10,2007-09-15,177,26,"South"
"747",2007-11-07,"2008","RS","Carazinho",2008-02-01,"R4","Feb",86,-28.284,-52.786,9,2007-09-15,139,21,"South"
"748",2007-11-07,"2008","RS","Catuípe",2008-02-15,"R3","Feb",100,-28.25,-54.012,8,2007-09-15,153,23,"South"
"749",2007-11-07,"2008","RS","Cerro Largo",2008-02-06,"R4","Feb",91,-28.149,-54.738,9,2007-09-15,144,22,"South"
"750",2007-11-07,"2008","RS","Chapada",2008-01-31,"R3","Jan",85,-28.055,-53.068,8,2007-09-15,138,21,"South"
"751",2007-11-07,"2008","RS","Chiapetta",2008-02-12,"R3","Feb",97,-27.923,-53.941,8,2007-09-15,150,23,"South"
"752",2007-11-07,"2008","RS","Ciríaco",2008-01-30,"V1","Jan",84,-28.344,-51.876,2,2007-09-15,137,21,"South"
"753",2007-11-07,"2008","RS","Derrubadas",2008-01-16,"R1","Jan",70,-27.265,-53.861,6,2007-09-15,123,19,"South"
"754",2007-11-07,"2008","RS","Dezesseis de Novembro",2008-02-29,"R3","Feb",114,-28.213,-55.068,8,2007-09-15,167,25,"South"
"755",2007-11-07,"2008","RS","Doutor Maurício Cardoso",2008-01-17,"Vn","Jan",71,-27.506,-54.361,5,2007-09-15,124,19,"South"
"756",2007-11-07,"2008","RS","Entre-Ijuís",2008-02-06,"R3","Feb",91,-28.36,-54.268,8,2007-09-15,144,22,"South"
"757",2007-11-07,"2008","RS","Espumoso",2008-01-31,"R3","Jan",85,-28.725,-52.85,8,2007-09-15,138,21,"South"
"758",2007-11-07,"2008","RS","Eugênio de Castro",2008-02-25,"R2","Feb",110,-28.525,-54.149,7,2007-09-15,163,24,"South"
"759",2007-11-07,"2008","RS","Garruchos",2008-02-20,"R3","Feb",105,-28.184,-55.639,8,2007-09-15,158,24,"South"
"760",2007-11-07,"2008","RS","Gaurama",2008-02-13,"R1","Feb",98,-27.584,-52.094,6,2007-09-15,151,23,"South"
"761",2007-11-07,"2008","RS","Giruá",2008-02-11,"R2","Feb",96,-28.028,-54.35,7,2007-09-15,149,22,"South"
"762",2007-11-07,"2008","RS","Guarani das Missões",2008-02-06,"R3","Feb",91,-28.141,-54.558,8,2007-09-15,144,22,"South"
"763",2007-11-07,"2008","RS","Horizontina",2008-01-25,"R1","Jan",79,-27.626,-54.308,6,2007-09-15,132,20,"South"
"764",2007-11-07,"2008","RS","Ijuí",2008-01-23,"R2","Jan",77,-28.388,-53.915,7,2007-09-15,130,20,"South"
"765",2007-11-07,"2008","RS","Independência",2008-01-31,"R3","Jan",85,-27.833,-54.188,8,2007-09-15,138,21,"South"
"766",2007-11-07,"2008","RS","Júlio de Castilhos",2008-02-15,"R4","Feb",100,-29.227,-53.682,9,2007-09-15,153,23,"South"
"767",2007-11-07,"2008","RS","Mato Queimado",2008-02-07,"R3","Feb",92,-28.256,-54.616,8,2007-09-15,145,22,"South"
"768",2007-11-07,"2008","RS","Nonoai",2008-01-12,"R1","Jan",66,-27.362,-52.771,6,2007-09-15,119,18,"South"
"769",2007-11-07,"2008","RS","Novo Machado",2008-01-16,"R1","Jan",70,-27.574,-54.505,6,2007-09-15,123,19,"South"
"770",2007-11-07,"2008","RS","Palmeira das Missões",2008-02-07,"R2","Feb",92,-27.899,-53.314,7,2007-09-15,145,22,"South"
"771",2007-11-07,"2008","RS","Pejuçara",2008-02-18,"R5","Feb",103,-28.423,-53.656,10,2007-09-15,156,23,"South"
"772",2007-11-07,"2008","RS","Pirapó",2008-01-13,"R1","Jan",67,-28.045,-55.199,6,2007-09-15,120,18,"South"
"773",2007-11-07,"2008","RS","Pontão",2008-01-31,"R1","Jan",85,-28.059,-52.677,6,2007-09-15,138,21,"South"
"774",2007-11-07,"2008","RS","Quatro Irmãos",2008-02-07,"R4","Feb",92,-27.821,-52.439,9,2007-09-15,145,22,"South"
"775",2007-11-07,"2008","RS","Santa Rosa",2008-01-16,"R2","Jan",70,-27.871,-54.481,7,2007-09-15,123,19,"South"
"776",2007-11-07,"2008","RS","Santiago",2008-03-27,"R5","Mar",141,-29.192,-54.867,10,2007-09-15,194,29,"South"
"777",2007-11-07,"2008","RS","Santo Ângelo",2008-02-08,"R3","Feb",93,-28.299,-54.263,8,2007-09-15,146,22,"South"
"778",2007-11-07,"2008","RS","Santo Cristo",2008-01-15,"R2","Jan",69,-27.824,-54.663,7,2007-09-15,122,19,"South"
"779",2007-11-07,"2008","RS","São Borja",2008-04-09,"R4","Apr",154,-28.661,-56.004,9,2007-09-15,207,31,"South"
"780",2007-11-07,"2008","RS","São José das Missões",2008-03-05,"R5","Mar",119,-27.78,-53.122,10,2007-09-15,172,26,"South"
"781",2007-11-07,"2008","RS","São Miguel das Missões",2008-02-06,"R5","Feb",91,-28.563,-54.554,10,2007-09-15,144,22,"South"
"782",2007-11-07,"2008","RS","São Nicolau",2008-01-11,"R1","Jan",65,-28.183,-55.267,6,2007-09-15,118,18,"South"
"783",2007-11-07,"2008","RS","Sarandi",2008-01-31,"R4","Jan",85,-27.944,-52.923,9,2007-09-15,138,21,"South"
"784",2007-11-07,"2008","RS","Sertão",2008-02-06,"R5","Feb",91,-27.98,-52.26,10,2007-09-15,144,22,"South"
"785",2007-11-07,"2008","RS","Três de Maio",2008-01-31,"R3","Jan",85,-27.773,-54.24,8,2007-09-15,138,21,"South"
"786",2007-11-07,"2008","SC","Iraceminha",2008-02-19,"R3","Feb",104,-26.823,-53.274,8,2007-09-15,157,24,"South"
"787",2007-11-07,"2008","SC","Xaxim",2008-02-27,"R5","Feb",112,-26.962,-52.535,10,2007-09-15,165,25,"South"
"788",2007-12-07,"2008","PR","Luiziana",2008-04-02,"V3","Apr",117,-24.286,-52.276,4,2007-09-15,200,30,"South"
"789",2007-12-07,"2008","RS","Cruz Alta",2008-02-14,"R1","Feb",69,-28.639,-53.606,6,2007-09-15,152,23,"South"
"790",2007-12-07,"2008","RS","Passo Fundo",2008-02-12,"Vn","Feb",67,-28.263,-52.407,5,2007-09-15,150,23,"South"
"791",2007-12-07,"2008","RS","Pelotas",2008-03-06,"R3","Mar",90,-31.772,-52.343,8,2007-09-15,173,26,"South"
"792",2007-12-07,"2008","RS","Tupanciretã",2008-03-07,"R3","Mar",91,-29.081,-53.836,8,2007-09-15,174,26,"South"
"793",2007-12-07,"2008","SC","Ouro Verde",2008-03-11,"R3","Mar",95,-26.694,-52.312,8,2007-09-15,178,27,"South"
"794",2008-10-07,"2009","PR","Altamira do Paraná",2009-02-04,"R5","Feb",120,-24.798,-52.713,10,2008-09-15,142,21,"South"
"795",2008-10-07,"2009","PR","Alto Piquiri",2009-01-28,"R5","Jan",113,-24.028,-53.441,10,2008-09-15,135,20,"South"
"796",2008-10-07,"2009","PR","Altônia",2009-02-10,"R5","Feb",126,-23.874,-53.902,10,2008-09-15,148,22,"South"
"797",2008-10-07,"2009","PR","Arapongas",2009-04-16,"R6","Apr",191,-23.419,-51.424,11,2008-09-15,213,32,"South"
"798",2008-10-07,"2009","PR","Ariranha do Ivaí",2009-02-16,"R5","Feb",132,-24.386,-51.585,10,2008-09-15,154,23,"South"
"799",2008-10-07,"2009","PR","Atalaia",2009-02-20,"R5","Feb",136,-23.151,-52.054,10,2008-09-15,158,24,"South"
"800",2008-10-07,"2009","PR","Barbosa Ferraz",2009-02-19,"R5","Feb",135,-24.03,-52.012,10,2008-09-15,157,24,"South"
"801",2008-10-07,"2009","PR","Boa Esperança",2009-01-29,"R5","Jan",114,-24.242,-52.789,10,2008-09-15,136,21,"South"
"802",2008-10-07,"2009","PR","Brasilândia do Sul",2009-01-30,"R3","Jan",115,-24.197,-53.525,8,2008-09-15,137,21,"South"
"803",2008-10-07,"2009","PR","Cândido de Abreu",2009-02-02,"R3","Feb",118,-24.567,-51.333,8,2008-09-15,140,21,"South"
"804",2008-10-07,"2009","PR","Candói",2009-02-17,"R3","Feb",133,-25.663,-52.126,8,2008-09-15,155,23,"South"
"805",2008-10-07,"2009","PR","Cantagalo",2009-02-25,"V3","Feb",141,-25.374,-52.126,4,2008-09-15,163,24,"South"
"806",2008-10-07,"2009","PR","Centenário do Sul",2009-03-03,"R5","Mar",147,-22.821,-51.595,10,2008-09-15,169,25,"South"
"807",2008-10-07,"2009","PR","Chopinzinho",2009-03-03,"R3","Mar",147,-25.856,-52.523,8,2008-09-15,169,25,"South"
"808",2008-10-07,"2009","PR","Cianorte",2009-01-21,"R4","Jan",106,-23.663,-52.605,9,2008-09-15,128,19,"South"
"809",2008-10-07,"2009","PR","Clevelândia",2009-03-09,"R4","Mar",153,-26.396,-52.471,9,2008-09-15,175,26,"South"
"810",2008-10-07,"2009","PR","Coronel Vivida",2008-12-12,"R1","Dec",66,-25.98,-52.568,6,2008-09-15,88,13,"South"
"811",2008-10-07,"2009","PR","Corumbataí do Sul",2009-03-03,"R5","Mar",147,-24.101,-52.12,10,2008-09-15,169,25,"South"
"812",2008-10-07,"2009","PR","Cruzeiro do Oeste",2009-01-27,"R5","Jan",112,-23.785,-53.073,10,2008-09-15,134,20,"South"
"813",2008-10-07,"2009","PR","Cruzmaltina",2009-02-18,"R3","Feb",134,-24.013,-51.459,8,2008-09-15,156,23,"South"
"814",2008-10-07,"2009","PR","Doutor Camargo",2009-01-12,"R4","Jan",97,-23.556,-52.218,9,2008-09-15,119,18,"South"
"815",2008-10-07,"2009","PR","Engenheiro Beltrão",2009-02-13,"R5","Feb",129,-23.797,-52.269,10,2008-09-15,151,23,"South"
"816",2008-10-07,"2009","PR","Faxinal",2009-01-21,"Vn","Jan",106,-24.001,-51.32,5,2008-09-15,128,19,"South"
"817",2008-10-07,"2009","PR","Fênix",2009-02-26,"R5","Feb",142,-23.916,-51.979,10,2008-09-15,164,25,"South"
"818",2008-10-07,"2009","PR","Formosa do Oeste",2009-02-16,"R2","Feb",132,-24.293,-53.313,7,2008-09-15,154,23,"South"
"819",2008-10-07,"2009","PR","Goioxim",2009-02-17,"R1","Feb",133,-25.195,-51.993,6,2008-09-15,155,23,"South"
"820",2008-10-07,"2009","PR","Honório Serpa",2009-03-03,"R5","Mar",147,-26.141,-52.387,10,2008-09-15,169,25,"South"
"821",2008-10-07,"2009","PR","Ivaiporã",2009-02-27,"R1","Feb",143,-24.248,-51.685,6,2008-09-15,165,25,"South"
"822",2008-10-07,"2009","PR","Ivatuba",2009-02-09,"R4","Feb",125,-23.619,-52.221,9,2008-09-15,147,22,"South"
"823",2008-10-07,"2009","PR","Janiópolis",2009-01-16,"R5","Jan",101,-24.142,-52.782,10,2008-09-15,123,19,"South"
"824",2008-10-07,"2009","PR","Jardim Alegre",2009-02-17,"R1","Feb",133,-24.179,-51.692,6,2008-09-15,155,23,"South"
"825",2008-10-07,"2009","PR","Jesuítas",2009-02-13,"R5","Feb",129,-24.385,-53.388,10,2008-09-15,151,23,"South"
"826",2008-10-07,"2009","PR","Juranda",2009-02-04,"R4","Feb",120,-24.42,-52.843,9,2008-09-15,142,21,"South"
"827",2008-10-07,"2009","PR","Loanda",2009-02-25,"R6","Feb",141,-22.923,-53.137,11,2008-09-15,163,24,"South"
"828",2008-10-07,"2009","PR","Londrina",2009-01-16,"VC","Jan",101,-23.31,-51.163,1,2008-09-15,123,19,"South"
"829",2008-10-07,"2009","PR","Lunardelli",2009-02-09,"R5","Feb",125,-24.079,-51.738,10,2008-09-15,147,22,"South"
"830",2008-10-07,"2009","PR","Mamborê",2009-02-12,"R2","Feb",128,-24.319,-52.53,7,2008-09-15,150,23,"South"
"831",2008-10-07,"2009","PR","Mangueirinha",2009-03-04,"R1","Mar",148,-25.941,-52.176,6,2008-09-15,170,25,"South"
"832",2008-10-07,"2009","PR","Marilândia do Sul",2009-02-06,"R3","Feb",122,-23.745,-51.308,8,2008-09-15,144,22,"South"
"833",2008-10-07,"2009","PR","Mariluz",2009-01-22,"R5","Jan",107,-24.002,-53.146,10,2008-09-15,129,20,"South"
"834",2008-10-07,"2009","PR","Marumbi",2009-04-16,"R8","Apr",191,-23.706,-51.639,13,2008-09-15,213,32,"South"
"835",2008-10-07,"2009","PR","Mauá da Serra",2009-04-16,"R8","Apr",191,-23.901,-51.229,13,2008-09-15,213,32,"South"
"836",2008-10-07,"2009","PR","Moreira Sales",2009-02-18,"R5","Feb",134,-24.062,-53.007,10,2008-09-15,156,23,"South"
"837",2008-10-07,"2009","PR","Nova Cantu",2009-02-23,"R4","Feb",139,-24.673,-52.569,9,2008-09-15,161,24,"South"
"838",2008-10-07,"2009","PR","Nova Tebas",2009-01-21,"R5","Jan",106,-24.438,-51.945,10,2008-09-15,128,19,"South"
"839",2008-10-07,"2009","PR","Ortigueira",2009-02-18,"R2","Feb",134,-24.208,-50.949,7,2008-09-15,156,23,"South"
"840",2008-10-07,"2009","PR","Ourizona",2009-01-30,"R5","Jan",115,-23.405,-52.199,10,2008-09-15,137,21,"South"
"841",2008-10-07,"2009","PR","Palmas",2009-02-04,"R1","Feb",120,-26.484,-51.991,6,2008-09-15,142,21,"South"
"842",2008-10-07,"2009","PR","Palmital",2009-03-04,"R4","Mar",148,-24.893,-52.203,9,2008-09-15,170,25,"South"
"843",2008-10-07,"2009","PR","Perobal",2009-01-29,"R3","Jan",114,-23.896,-53.41,8,2008-09-15,136,21,"South"
"844",2008-10-07,"2009","PR","Pinhão",2009-03-04,"R2","Mar",148,-25.696,-51.66,7,2008-09-15,170,25,"South"
"845",2008-10-07,"2009","PR","Ponta Grossa",2009-03-23,"R7","Mar",167,-25.095,-50.162,12,2008-09-15,189,28,"South"
"846",2008-10-07,"2009","PR","Quarto Centenário",2009-02-19,"R6","Feb",135,-24.279,-53.076,11,2008-09-15,157,24,"South"
"847",2008-10-07,"2009","PR","Rancho Alegre do Oeste",2009-01-21,"R5","Jan",106,-24.307,-52.954,10,2008-09-15,128,19,"South"
"848",2008-10-07,"2009","PR","Rio Bom",2009-02-18,"R5","Feb",134,-23.762,-51.411,10,2008-09-15,156,23,"South"
"849",2008-10-07,"2009","PR","Rio Branco do Ivaí",2009-02-27,"R5","Feb",143,-24.324,-51.313,10,2008-09-15,165,25,"South"
"850",2008-10-07,"2009","PR","Roncador",2009-02-05,"R2","Feb",121,-24.603,-52.275,7,2008-09-15,143,22,"South"
"851",2008-10-07,"2009","PR","Rondon",2009-03-10,"R5","Mar",154,-23.411,-52.761,10,2008-09-15,176,26,"South"
"852",2008-10-07,"2009","PR","Sabáudia",2009-04-16,"R8","Apr",191,-23.318,-51.553,13,2008-09-15,213,32,"South"
"853",2008-10-07,"2009","PR","Santa Maria do Oeste",2009-02-19,"R1","Feb",135,-24.939,-51.863,6,2008-09-15,157,24,"South"
"854",2008-10-07,"2009","PR","São João do Ivaí",2009-02-03,"R2","Feb",119,-23.98,-51.818,7,2008-09-15,141,21,"South"
"855",2008-10-07,"2009","PR","São Jorge do Ivaí",2009-02-16,"R4","Feb",132,-23.433,-52.293,9,2008-09-15,154,23,"South"
"856",2008-10-07,"2009","PR","São Pedro do Ivaí",2009-02-13,"R5","Feb",129,-23.865,-51.856,10,2008-09-15,151,23,"South"
"857",2008-10-07,"2009","PR","Sarandi",2009-01-13,"R5","Jan",98,-23.444,-51.874,10,2008-09-15,120,18,"South"
"858",2008-10-07,"2009","PR","Tapejara",2009-02-19,"R5","Feb",135,-23.733,-52.873,10,2008-09-15,157,24,"South"
"859",2008-10-07,"2009","PR","Terra Rica",2009-02-16,"R4","Feb",132,-22.709,-52.617,9,2008-09-15,154,23,"South"
"860",2008-10-07,"2009","PR","Toledo",2009-01-26,"R5","Jan",111,-24.714,-53.743,10,2008-09-15,133,20,"South"
"861",2008-10-07,"2009","PR","Tupãssi",2009-01-09,"R3","Jan",94,-24.588,-53.512,8,2008-09-15,116,18,"South"
"862",2008-10-07,"2009","PR","Ubiratã",2009-01-05,"R3","Jan",90,-24.545,-52.988,8,2008-09-15,112,17,"South"
"863",2008-10-07,"2009","PR","Umuarama",2009-02-16,"R5","Feb",132,-23.766,-53.325,10,2008-09-15,154,23,"South"
"864",2008-10-07,"2009","PR","Vila Alta",2009-02-16,"R5","Feb",132,-23.508,-53.728,10,2008-09-15,154,23,"South"
"865",2008-10-07,"2009","RS","Boa Vista do Cadeado",2009-02-03,"R4","Feb",119,-28.607,-53.815,9,2008-09-15,141,21,"South"
"866",2008-10-07,"2009","RS","Campestre da Serra",2009-03-13,"R5","Mar",157,-28.795,-51.093,10,2008-09-15,179,27,"South"
"867",2008-10-07,"2009","RS","Carazinho",2009-01-27,"R5","Jan",112,-28.284,-52.786,10,2008-09-15,134,20,"South"
"868",2008-10-07,"2009","RS","Colorado",2009-02-03,"R3","Feb",119,-28.524,-52.994,8,2008-09-15,141,21,"South"
"869",2008-10-07,"2009","RS","Dilermando de Aguiar",2009-01-23,"R5","Jan",108,-29.706,-54.208,10,2008-09-15,130,20,"South"
"870",2008-10-07,"2009","RS","Espumoso",2009-03-17,"R5","Mar",161,-28.725,-52.85,10,2008-09-15,183,27,"South"
"871",2008-10-07,"2009","RS","Frederico Westphalen",2009-01-30,"R2","Jan",115,-27.359,-53.394,7,2008-09-15,137,21,"South"
"872",2008-10-07,"2009","RS","Independência",2009-02-18,"R4","Feb",134,-27.833,-54.188,9,2008-09-15,156,23,"South"
"873",2008-10-07,"2009","RS","Nova Alvorada",2009-03-09,"R5","Mar",153,-28.678,-52.166,10,2008-09-15,175,26,"South"
"874",2008-10-07,"2009","RS","Pinheirinho do Vale",2009-01-30,"R2","Jan",115,-27.21,-53.612,7,2008-09-15,137,21,"South"
"875",2008-10-07,"2009","RS","Salto do Jacuí",2009-01-27,"R2","Jan",112,-29.088,-53.213,7,2008-09-15,134,20,"South"
"876",2008-10-07,"2009","RS","Tapera",2009-03-09,"R5","Mar",153,-28.626,-52.87,10,2008-09-15,175,26,"South"
"877",2008-10-07,"2009","RS","Victor Graeff",2009-03-11,"R5","Mar",155,-28.56,-52.748,10,2008-09-15,177,26,"South"
"878",2008-10-07,"2009","RS","Vila Nova do Sul",2009-02-16,"R5","Feb",132,-30.344,-53.883,10,2008-09-15,154,23,"South"
"879",2008-10-07,"2009","SC","Abelardo Luz",2009-02-10,"R1","Feb",126,-26.565,-52.328,6,2008-09-15,148,22,"South"
"880",2008-10-07,"2009","SC","Anchieta",2009-04-01,"R7","Apr",176,-26.534,-53.331,12,2008-09-15,198,29,"South"
"881",2008-10-07,"2009","SC","Belmonte",2009-03-31,"R5","Mar",175,-26.841,-53.576,10,2008-09-15,197,29,"South"
"882",2008-10-07,"2009","SC","Campo Erê",2009-04-01,"R8","Apr",176,-26.394,-53.078,13,2008-09-15,198,29,"South"
"883",2008-10-07,"2009","SC","Caxambu do Sul",2009-01-26,"R1","Jan",111,-27.161,-52.879,6,2008-09-15,133,20,"South"
"884",2008-10-07,"2009","SC","Descanso",2009-03-31,"R8","Mar",175,-26.826,-53.502,13,2008-09-15,197,29,"South"
